name,Michelin stars,year,latitude,longitude,city,region,zipCode,cuisine,price,url
108,1,2019,55.67785,12.5980835,København,Denmark,1401 K,Modern cuisine,$$$,https://guide.michelin.com/dk/en/capital-region/kobenhavn/restaurant/108
21212,1,2019,55.95674,-3.18018,Edinburgh,United Kingdom,EH7 5AB,Creative,N/A,https://guide.michelin.com/gb/en/city-of-edinburgh/edinburgh/restaurant/21212
28+,1,2019,57.69809,11.97377,Göteborg,Sweden,411 34,Modern cuisine,$$$,https://guide.michelin.com/se/en/vastra-gotaland/goteborg/restaurant/28
360º,1,2019,42.641563,18.111523,Dubrovnik,Croatia,20000,Modern cuisine,$$$$$,https://guide.michelin.com/hr/en/dubrovnik-neretva/dubrovnik/restaurant/360%C2%BA
8 1/2 Otto e Mezzo - Bombana,1,2019,22.14918,113.55393,Macau,Macau,N/A,Italian,$$$,https://guide.michelin.com/mo/en/macau-region/macau/restaurant/8-1-2-otto-e-mezzo-bombana
8½ Otto e Mezzo - Bombana,3,2019,22.28189,114.15839,Hong Kong,Hong Kong,N/A,Italian,$$$$,https://guide.michelin.com/hk/en/hong-kong-region/hong-kong/restaurant/8%C2%BD-otto-e-mezzo-bombana
A. Wong,1,2019,51.49318,-0.14128,Victoria,United Kingdom,SW1V 1DE,Chinese,N/A,https://guide.michelin.com/gb/en/greater-london/victoria/restaurant/a-wong
a‚o‚c,2,2019,55.68305,12.58921,København,Denmark,1302 K,Modern cuisine,$$$$,https://guide.michelin.com/dk/en/capital-region/kobenhavn/restaurant/a%E2%80%9Ao%E2%80%9Ac
Acadia,2,2019,41.85904,-87.62562,Chicago,Chicago,60616,Contemporary,$$$$,https://guide.michelin.com/us/en/illinois/chicago/restaurant/acadia
Acquerello,2,2019,37.79167,-122.42131,San Francisco,California,94109,Italian,$$$$,https://guide.michelin.com/us/en/california/san-francisco/restaurant/acquerello
Adam's,1,2019,52.47964,-1.900286,Birmingham,United Kingdom,B2 5UG,Modern cuisine,N/A,https://guide.michelin.com/gb/en/west-midlands/birmingham/restaurant/adam-s
Addison,1,2019,32.939903,-117.20013,San Diego,California,92130,Contemporary,$$$$,https://guide.michelin.com/us/en/california/us-san-diego/restaurant/addison
aend,1,2019,48.18957,16.34115,Wien,Austria,1010,Modern cuisine,$$$$$,https://guide.michelin.com/at/en/vienna/wien/restaurant/aend
Agern,1,2019,40.75234,-73.9775,New York,New York City,10017,Scandinavian,$$$$,https://guide.michelin.com/us/en/new-york-state/new-york/restaurant/agern
Agrikultur,1,2019,59.34777,18.05863,Stockholm,Sweden,113 54,Modern cuisine,$$$$,https://guide.michelin.com/se/en/stockholm-region/stockholm/restaurant/agrikultur
Ah Yat Harbour View (Tsim Sha Tsui),1,2019,22.296984,114.17197,Hong Kong,Hong Kong,N/A,Cantonese,$$,https://guide.michelin.com/hk/en/hong-kong-region/hong-kong/restaurant/ah-yat-harbour-view-tsim-sha-tsui
Ai Fiori,1,2019,40.75013,-73.98357,New York,New York City,10018,Italian,$$$$,https://guide.michelin.com/us/en/new-york-state/new-york/restaurant/ai-fiori
Al's Place,1,2019,37.748924,-122.42013,San Francisco,California,94110,Californian,$$,https://guide.michelin.com/us/en/california/san-francisco/restaurant/al-s-place
Alain Ducasse at Morpheus,2,2019,22.14293,113.563774,Macau,Macau,N/A,French contemporary,$$$$$,https://guide.michelin.com/mo/en/macau-region/macau/restaurant/alain-ducasse-at-morpheus
Alain Ducasse at The Dorchester,3,2019,51.50712,-0.1525201,Mayfair,United Kingdom,W1K 1QA,French,N/A,https://guide.michelin.com/gb/en/greater-london/mayfair/restaurant/alain-ducasse-at-the-dorchester
Aldea,1,2019,40.73885,-73.99366,New York,New York City,10011,Mediterranean,$$$$,https://guide.michelin.com/us/en/new-york-state/new-york/restaurant/aldea
Alinea,3,2019,41.91328,-87.64798,Chicago,Chicago,60614,Contemporary,$$$$,https://guide.michelin.com/us/en/illinois/chicago/restaurant/alinea
Alla Prima,2,2019,37.51844,127.03008,Seoul,South Korea,N/A,Innovative,$$$,https://guide.michelin.com/kr/en/seoul-capital-area/kr-seoul/restaurant/alla-prima
Alma,1,2018,1.309123,103.834,Singapore,Singapore,N/A,European contemporary,$,https://guide.michelin.com/sg/en/singapore-region/singapore/restaurant/alma
Aloë,1,2019,59.2842,17.985748,Stockholm,Sweden,125 33,Creative,$$$$,https://guide.michelin.com/se/en/stockholm-region/stockholm/restaurant/aloe
Alouette,1,2019,55.66265,12.57634,København,Denmark,2300 S,Modern cuisine,$$$,https://guide.michelin.com/dk/en/capital-region/kobenhavn/restaurant/alouette
Alyn Williams at The Westbury,1,2019,51.51118,-0.14303,Mayfair,United Kingdom,W1S 2YF,Modern cuisine,N/A,https://guide.michelin.com/gb/en/greater-london/mayfair/restaurant/alyn-williams-at-the-westbury
Amador,3,2019,48.25406,16.35915,Wien,Austria,1190,Creative,$$$$$,https://guide.michelin.com/at/en/vienna/wien/restaurant/amador
Amaya,1,2019,51.49912,-0.15731,Belgravia,United Kingdom,SW1X 8JT,Indian,N/A,https://guide.michelin.com/gb/en/greater-london/belgravia/restaurant/amaya
Amber,2,2019,22.280596,114.15764,Hong Kong,Hong Kong,N/A,French contemporary,$$$$,https://guide.michelin.com/hk/en/hong-kong-region/hong-kong/restaurant/amber569032
Andrew Fairlie at Gleneagles,2,2019,56.28339,-3.75149,Auchterarder,United Kingdom,PH3 1NF,Creative French,N/A,https://guide.michelin.com/gb/en/perth-and-kinross/auchterarder/restaurant/andrew-fairlie-at-gleneagles
Angler,1,2019,37.793167,-122.39213,San Francisco,California,94101,Contemporary,$$$$,https://guide.michelin.com/us/en/california/san-francisco/restaurant/angler
Angler,1,2019,51.51894,-0.08625,Finsbury,United Kingdom,EC2M 2AF,Seafood,N/A,https://guide.michelin.com/gb/en/greater-london/finsbury/restaurant/angler392235
Aniar,1,2019,53.27112,-9.057078,Gaillimh/Galway,Ireland,N/A,Creative,N/A,https://guide.michelin.com/ie/en/galway/gaillimh-galway/restaurant/aniar
Aquavit,1,2019,51.508713,-0.1334072,Saint James's,United Kingdom,SW1Y 4QQ,Scandinavian,N/A,https://guide.michelin.com/gb/en/greater-london/saint-james-s/restaurant/aquavit501082
Aquavit,2,2019,40.76078,-73.97214,New York,New York City,10022,Scandinavian,$$$$,https://guide.michelin.com/us/en/new-york-state/new-york/restaurant/aquavit
Arbor,1,2019,22.283146,114.15542,,Hong Kong,N/A,Innovative,$$$,https://guide.michelin.com/hk/en/hong-kong-region/hong-kong/restaurant/arbor
Arcane,1,2019,22.280624,114.15682,Hong Kong,Hong Kong,N/A,European contemporary,$$$,https://guide.michelin.com/hk/en/hong-kong-region/hong-kong/restaurant/arcane
Ask,1,2019,60.17236,24.95648,Helsingfors / Helsinki,Finland,170,Modern cuisine,$$$,https://guide.michelin.com/fi/en/uusimaa/helsingfors-helsinki/restaurant/ask
Aska,2,2019,40.71222,-73.96642,New York,New York City,11249,Scandinavian,$$$$,https://guide.michelin.com/us/en/new-york-state/new-york/restaurant/aska
Aster,1,2019,37.755054,-122.423134,San Francisco,California,94110,Californian,$$$,https://guide.michelin.com/us/en/california/san-francisco/restaurant/aster
atelier Amaro,1,2019,52.21708,21.03768,Warszawa,Poland,00 507,Modern cuisine,$$$$,https://guide.michelin.com/pl/en/masovia/warszawa/restaurant/atelier-amaro
Atelier Crenn,3,2019,37.79835,-122.43586,San Francisco,California,94123,Contemporary,$$$$,https://guide.michelin.com/us/en/california/san-francisco/restaurant/atelier-crenn
Atera,2,2019,40.716797,-74.00565,New York,New York City,10013,Contemporary,$$$$,https://guide.michelin.com/us/en/new-york-state/new-york/restaurant/atera
Atomix,1,2019,40.744408,-73.98292,New York,New York City,N/A,Korean,$$$$,https://guide.michelin.com/us/en/new-york-state/new-york/restaurant/atomix
Auberge du Soleil,1,2019,38.49199,-122.40534,San Francisco,California,94573,Californian,$$$$,https://guide.michelin.com/us/en/california/san-francisco/restaurant/auberge-du-soleil
Aubergine,1,2019,36.55406,-121.924355,Monterey,California,93921,Contemporary,$$$$,https://guide.michelin.com/us/en/california/monterey/restaurant/aubergine
Babbo,1,2019,40.73233,-73.99916,New York,New York City,10011,Italian,$$$$,https://guide.michelin.com/us/en/new-york-state/new-york/restaurant/babbo
Babel,1,2019,47.492603,19.05256,Budapest,Hungary,1052,Modern cuisine,$$$$$,https://guide.michelin.com/hu/en/central-hungary/budapest/restaurant/babel
Bacchanalia,1,2018,1.2874758,103.8474,Singapore,Singapore,N/A,Innovative,$$,https://guide.michelin.com/sg/en/singapore-region/singapore/restaurant/bacchanalia
Balwoo Gongyang,1,2019,37.57389,126.98318,Seoul,South Korea,N/A,Temple cuisine,$$,https://guide.michelin.com/kr/en/seoul-capital-area/kr-seoul/restaurant/balwoo-gongyang
Band of Bohemia,1,2019,41.967308,-87.67477,Chicago,Chicago,60640,Gastropub,$$$,https://guide.michelin.com/us/en/illinois/chicago/restaurant/band-of-bohemia
Bar Crenn,1,2019,37.798435,-122.43581,San Francisco,California,94101,French,$$$,https://guide.michelin.com/us/en/california/san-francisco/restaurant/bar-crenn
Bar Uchū,1,2019,40.72191,-73.99003,New York,New York City,10002,Japanese,$$$$,https://guide.michelin.com/us/en/new-york-state/new-york/restaurant/bar-uchu
Barrafina,1,2019,51.51375,-0.1318,Soho,United Kingdom,W1D 3LL,Spanish,N/A,https://guide.michelin.com/gb/en/greater-london/soho/restaurant/barrafina
Bâtard,1,2019,40.719616,-74.00589,New York,New York City,10013,Contemporary,$$$$,https://guide.michelin.com/us/en/new-york-state/new-york/restaurant/batard
Baumé,2,2019,37.4285,-122.14272,South San Francisco,California,94306,Contemporary,$$$$,https://guide.michelin.com/us/en/california/south-san-francisco/restaurant/baume
Beefbar,1,2019,22.27982,114.15752,Hong Kong,Hong Kong,N/A,Steakhouse,$$,https://guide.michelin.com/hk/en/hong-kong-region/hong-kong/restaurant/beefbar
Belmond Le Manoir aux Quat' Saisons,2,2019,51.71674,-1.09187,Great Milton,United Kingdom,OX44 7PD,French,N/A,https://guide.michelin.com/gb/en/oxfordshire/great-milton/restaurant/belmond-le-manoir-aux-quat-saisons
Belon,1,2019,22.281662,114.152405,Hong Kong,Hong Kong,N/A,French,$$$,https://guide.michelin.com/hk/en/hong-kong-region/hong-kong/restaurant/belon
Benares,1,2019,51.50973,-0.14494,Mayfair,United Kingdom,W1J 6BS,Indian,N/A,https://guide.michelin.com/gb/en/greater-london/mayfair/restaurant/benares
Béni,1,2018,1.302379,103.8366,Singapore,Singapore,N/A,French contemporary,$$,https://guide.michelin.com/sg/en/singapore-region/singapore/restaurant/beni
Benu,3,2019,37.78521,-122.39876,San Francisco,California,94105,Asian,$$$$,https://guide.michelin.com/us/en/california/san-francisco/restaurant/benu
Bhoga,1,2019,57.70618,11.9624,Göteborg,Sweden,411 14,Creative,$$$,https://guide.michelin.com/se/en/vastra-gotaland/goteborg/restaurant/bhoga
Bicena,1,2019,37.5384,127.00135,Seoul,South Korea,N/A,Korean,$$$,https://guide.michelin.com/kr/en/seoul-capital-area/kr-seoul/restaurant/bicena
Birdsong,1,2019,37.779495,-122.41048,San Francisco,California,94101,American,$$$$,https://guide.michelin.com/us/en/california/san-francisco/restaurant/birdsong
Bistro Na's,1,2019,34.104412,-118.07159,Los Angeles,California,91780,Chinese,$$,https://guide.michelin.com/us/en/california/us-los-angeles/restaurant/bistro-na-s
Black Rat,1,2019,51.05796,-1.3069497,Winchester,United Kingdom,SO23 0HX,Modern cuisine,N/A,https://guide.michelin.com/gb/en/hampshire/winchester/restaurant/black-rat
Black Swan,1,2019,54.21205,-1.1879199,Oldstead,United Kingdom,YO61 4BL,Modern British,N/A,https://guide.michelin.com/gb/en/north-yorkshire/oldstead/restaurant/black-swan
Blackbird,1,2019,41.88423,-87.64356,Chicago,Chicago,60661,Contemporary,$$$,https://guide.michelin.com/us/en/illinois/chicago/restaurant/blackbird
Blackbird,1,2019,51.420887,-1.3493549,Newbury,United Kingdom,RG20 8AQ,Classic cuisine,N/A,https://guide.michelin.com/gb/en/west-berkshire/newbury/restaurant/blackbird552018
Blanca,2,2019,40.70492,-73.93354,New York,New York City,11206,Contemporary,$$$$,https://guide.michelin.com/us/en/new-york-state/new-york/restaurant/blanca
Bloom in the Park,1,2019,55.59064,12.99794,Malmö,Sweden,214 66,Creative,$$,https://guide.michelin.com/se/en/skane/malmo/restaurant/bloom-in-the-park
Blue Duck Tavern,1,2019,38.905373,-77.05128,"Washington, D.C.",Washington DC,20037,American,$$$,https://guide.michelin.com/us/en/washington/washington-dc/restaurant/blue-duck-tavern
Blue Hill,1,2019,40.7321,-73.9996,New York,New York City,10011,American,$$$$,https://guide.michelin.com/us/en/new-york-state/new-york/restaurant/blue-hill
Bo Innovation,3,2019,22.27614,114.171,Hong Kong,Hong Kong,N/A,Innovative,$$$$$,https://guide.michelin.com/hk/en/hong-kong-region/hong-kong/restaurant/bo-innovation
Bo.lan,1,2019,13.726389,100.57799,Bangkok,Thailand,N/A,Thai,$$$$$,https://guide.michelin.com/th/en/bangkok-region/bangkok/restaurant/bo-lan
Bohemia,1,2019,49.181225,-2.102417,Saint Helier/Saint-Hélier,United Kingdom,JE2 4UH,Modern cuisine,N/A,https://guide.michelin.com/gb/en/saint-helier/saint-helier-saint-helier/restaurant/bohemia
Boka,1,2019,41.91363,-87.64806,Chicago,Chicago,60614,Contemporary,$$$,https://guide.michelin.com/us/en/illinois/chicago/restaurant/boka
Borkonyha Winekitchen,1,2019,47.49953,19.052391,Budapest,Hungary,1051,Modern cuisine,$$$$,https://guide.michelin.com/hu/en/central-hungary/budapest/restaurant/borkonyha-winekitchen
Botrini's,1,2019,38.02318,23.79377,Athína,Greece,152 33,Mediterranean,$$$$$,https://guide.michelin.com/gr/en/attica/athina/restaurant/botrini-s
Bouchon,1,2019,38.40258,-122.3619,San Francisco,California,94599,French,$$$,https://guide.michelin.com/us/en/california/san-francisco/restaurant/bouchon
Bouley at Home,1,2019,40.74114,-73.99242,New York,New York City,N/A,Contemporary,$$$,https://guide.michelin.com/us/en/new-york-state/new-york/restaurant/bouley-at-home
Braci,1,2018,1.287212,103.84949,Singapore,Singapore,N/A,Italian contemporary,$$,https://guide.michelin.com/sg/en/singapore-region/singapore/restaurant/braci
Braidwoods,1,2019,55.69474,-4.7425,Dalry,United Kingdom,KA24 4LN,Classic cuisine,N/A,https://guide.michelin.com/gb/en/north-ayrshire/dalry/restaurant/braidwoods
Brat,1,2019,51.52427,-0.0767681,Shoreditch,United Kingdom,E1 6JL,Traditional British,N/A,https://guide.michelin.com/gb/en/greater-london/shoreditch/restaurant/brat
Bresca,1,2019,38.91584,-77.0321,"Washington, D.C.",Washington DC,20000,Contemporary,$$,https://guide.michelin.com/us/en/washington/washington-dc/restaurant/bresca
Bulrush,1,2019,51.46278,-2.597758,Bristol,United Kingdom,BS6 5TZ,Modern British,N/A,https://guide.michelin.com/gb/en/south-gloucestershire/bristol/restaurant/bulrush
Burnt Ends,1,2018,1.280501,103.8418,Singapore,Singapore,N/A,Barbecue,$$,https://guide.michelin.com/sg/en/singapore-region/singapore/restaurant/burnt-ends
Bybrook,1,2019,51.49382,-2.23212,Castle Combe,United Kingdom,SN14 7HR,Modern British,N/A,https://guide.michelin.com/gb/en/wiltshire/castle-combe/restaurant/bybrook
Café Boulud,1,2019,40.77439,-73.96414,New York,New York City,10021,French,$$$$,https://guide.michelin.com/us/en/new-york-state/new-york/restaurant/cafe-boulud
Café China,1,2019,40.749973,-73.98228,New York,New York City,10016,Chinese,$$,https://guide.michelin.com/us/en/new-york-state/new-york/restaurant/cafe-china
Californios,2,2019,37.75555,-122.417145,San Francisco,California,94110,Mexican,$$$$,https://guide.michelin.com/us/en/california/san-francisco/restaurant/californios
Campagne,1,2019,52.6559,-7.2464285,Cill Chainnigh/Kilkenny,Ireland,N/A,Modern British,N/A,https://guide.michelin.com/ie/en/kilkenny/cill-chainnigh-kilkenny/restaurant/campagne
Campton Place,2,2019,37.78923,-122.40665,San Francisco,California,94108,Indian,$$$$,https://guide.michelin.com/us/en/california/san-francisco/restaurant/campton-place
Candlenut,1,2018,1.2797709,103.8402,Singapore,Singapore,N/A,Peranakan,$,https://guide.michelin.com/sg/en/singapore-region/singapore/restaurant/candlenut
Canvas,1,2019,13.728886,100.580826,Bangkok,Thailand,N/A,Innovative,$$$$,https://guide.michelin.com/th/en/bangkok-region/bangkok/restaurant/canvas566292
Caprice,3,2019,22.286646,114.15662,Hong Kong,Hong Kong,N/A,French,$$$$,https://guide.michelin.com/hk/en/hong-kong-region/hong-kong/restaurant/caprice
Carbone,1,2019,40.727966,-74.00017,New York,New York City,10003,Italian,$$$$,https://guide.michelin.com/us/en/new-york-state/new-york/restaurant/carbone
Carpe Diem,1,2019,47.80001,13.04006,Salzburg,Austria,5020,Market cuisine,$$$$$,https://guide.michelin.com/at/en/salzburg-region/salzburg/restaurant/carpe-diem
Carters of Moseley,1,2019,52.44588,-1.88384,Birmingham,United Kingdom,B13 9EZ,Modern British,N/A,https://guide.michelin.com/gb/en/west-midlands/birmingham/restaurant/carters-of-moseley
Casa Enríque,1,2019,40.743492,-73.95425,New York,New York City,11101,Mexican,$$,https://guide.michelin.com/us/en/new-york-state/new-york/restaurant/casa-enrique
Casa Mono,1,2019,40.73595,-73.98706,New York,New York City,10003,Spanish,$$$,https://guide.michelin.com/us/en/new-york-state/new-york/restaurant/casa-mono
Casamia,1,2019,51.447254,-2.5940728,Bristol,United Kingdom,BS1 6FU,Creative,N/A,https://guide.michelin.com/gb/en/south-gloucestershire/bristol/restaurant/casamia
Caviar Russe,1,2019,40.760685,-73.97355,New York,New York City,10022,Contemporary,$$$$,https://guide.michelin.com/us/en/new-york-state/new-york/restaurant/caviar-russe
Celebrity Cuisine,1,2019,22.284334,114.15312,Hong Kong,Hong Kong,N/A,Cantonese,$$,https://guide.michelin.com/hk/en/hong-kong-region/hong-kong/restaurant/celebrity-cuisine
Céleste,1,2019,51.502422,-0.1522617,Belgravia,United Kingdom,SW1X 7TA,Creative French,N/A,https://guide.michelin.com/gb/en/greater-london/belgravia/restaurant/celeste
Chapter One,1,2019,53.354374,-6.263786,City Centre,Ireland,D1,Modern cuisine,N/A,https://guide.michelin.com/ie/en/dublin/city-centre/restaurant/chapter-one
Cheek by Jowl,1,2018,1.281301,103.84849,Singapore,Singapore,N/A,Australian,$,https://guide.michelin.com/sg/en/singapore-region/singapore/restaurant/cheek-by-jowl
Chef Kang's,1,2018,1.304735,103.84955,Singapore,Singapore,N/A,Cantonese,$$$,https://guide.michelin.com/sg/en/singapore-region/singapore/restaurant/chef-kang-s
Chef's Table at Brooklyn Fare,3,2019,40.68872,-73.98581,New York,New York City,10018,Contemporary,$$$$,https://guide.michelin.com/us/en/new-york-state/new-york/restaurant/chef-s-table-at-brooklyn-fare
Chestnut,1,2019,51.562588,-9.460854,Ballydehob,Ireland,N/A,Modern cuisine,N/A,https://guide.michelin.com/ie/en/cork/ballydehob/restaurant/chestnut
Chez Bruce,1,2019,51.44607,-0.16553,Wandsworth,United Kingdom,SW17 7EG,French,N/A,https://guide.michelin.com/gb/en/greater-london/wandsworth/restaurant/chez-bruce
Chez TJ,1,2019,37.39468,-122.08044,South San Francisco,California,94041,Contemporary,$$$$,https://guide.michelin.com/us/en/california/south-san-francisco/restaurant/chez-tj
Chim by Siam Wisdom,1,2019,13.740706,100.56789,Bangkok,Thailand,N/A,Thai,$$$,https://guide.michelin.com/th/en/bangkok-region/bangkok/restaurant/chim-by-siam-wisdom
Cipriani,1,2019,-22.96755,-43.17901,Rio de Janeiro - 22021,Rio de Janeiro,1,Italian,$$$$$,https://guide.michelin.com/br/en/rio-de-janeiro-region/rio-de-janeiro/restaurant/cipriani
City Social,1,2019,51.51521,-0.08431,City of London,United Kingdom,EC2N 1HQ,Modern cuisine,N/A,https://guide.michelin.com/gb/en/greater-london/city-of-london/restaurant/city-social
Claro,1,2019,40.677395,-73.98615,New York,New York City,N/A,Mexican,$$,https://guide.michelin.com/us/en/new-york-state/new-york/restaurant/claro
Claude Bosi at Bibendum,2,2019,51.49341,-0.1690893,Chelsea,United Kingdom,SW3 6RD,French,N/A,https://guide.michelin.com/gb/en/greater-london/chelsea/restaurant/claude-bosi-at-bibendum
Clock House,1,2019,51.30044,-0.49287,Ripley,United Kingdom,GU23 6AQ,Modern cuisine,N/A,https://guide.michelin.com/gb/en/surrey/ripley/restaurant/clock-house
Clou,1,2019,55.68342,12.58497,København,Denmark,2100 K,Modern cuisine,$$$$,https://guide.michelin.com/dk/en/capital-region/kobenhavn/restaurant/clou
Club Gascon,1,2019,51.51857,-0.10031,London,United Kingdom,EC1A 9DS,French,N/A,https://guide.michelin.com/gb/en/greater-london/london/restaurant/club-gascon
Coi,2,2019,37.79812,-122.40331,San Francisco,California,94133,Contemporary,$$$$,https://guide.michelin.com/us/en/california/san-francisco/restaurant/coi
Commis,2,2019,37.82476,-122.25505,San Francisco,California,94601,Contemporary,$$$$,https://guide.michelin.com/us/en/california/san-francisco/restaurant/commis
Commonwealth,1,2019,37.761395,-122.41946,San Francisco,California,94110,Contemporary,$$,https://guide.michelin.com/us/en/california/san-francisco/restaurant/commonwealth
Contra,1,2019,40.719917,-73.98922,New York,New York City,10002,Contemporary,$$$$,https://guide.michelin.com/us/en/new-york-state/new-york/restaurant/contra
CORE by Clare Smyth,2,2019,51.51261,-0.2030516,North Kensington,United Kingdom,W11 2PN,Modern British,N/A,https://guide.michelin.com/gb/en/greater-london/north-kensington/restaurant/core-by-clare-smyth
Corner House,1,2018,1.315121,103.8154,Singapore,Singapore,N/A,Innovative,$$,https://guide.michelin.com/sg/en/singapore-region/singapore/restaurant/corner-house
Costes,1,2019,47.48873,19.061779,Budapest,Hungary,1092,Modern cuisine,$$$$$,https://guide.michelin.com/hu/en/central-hungary/budapest/restaurant/costes
Costes Downtown,1,2019,47.50113,19.048595,Budapest,Hungary,1051,Modern cuisine,$$$$,https://guide.michelin.com/hu/en/central-hungary/budapest/restaurant/costes-downtown
Cote,1,2019,40.73778,-73.99375,New York,New York City,10010,Korean,$$$,https://guide.michelin.com/us/en/new-york-state/new-york/restaurant/cote
Coworth Park,1,2019,51.40463,-0.616715,Ascot,United Kingdom,SL5 7SE,Modern cuisine,N/A,https://guide.michelin.com/gb/en/windsor-and-maidenhead/ascot/restaurant/coworth-park
Credo,1,2019,63.43391,10.39631,Trondheim,Norway,7066,Creative,$$$$,https://guide.michelin.com/no/en/trondelag/trondheim/restaurant/credo
Crown,1,2019,51.524807,-0.7915291,Burchett's Green,United Kingdom,SL6 6QZ,Regional cuisine,N/A,https://guide.michelin.com/gb/en/windsor-and-maidenhead/burchett-s-green/restaurant/crown442549
Crystal Jade Golden Palace,1,2018,1.303244,103.8353,Singapore,Singapore,N/A,Chinese,$,https://guide.michelin.com/sg/en/singapore-region/singapore/restaurant/crystal-jade-golden-palace
CUT,1,2019,34.067036,-118.401024,Los Angeles,California,90212,Steakhouse,$$$$,https://guide.michelin.com/us/en/california/us-los-angeles/restaurant/cut559418
Cut,1,2018,1.2853268,103.8607,Singapore,Singapore,N/A,Steakhouse,$$$,https://guide.michelin.com/sg/en/singapore-region/singapore/restaurant/cut
D.O.M.,2,2019,-23.56618,-46.66742,São Paulo - 01411,Sao Paulo,11,creative,$$$$$,https://guide.michelin.com/br/en/sao-paulo-region/sao-paulo/restaurant/d-o-m
Da San Yuan,1,2019,25.042248,121.512215,Taipei,Taipei,110,Cantonese,$,https://guide.michelin.com/tw/en/taipei-region/taipei/restaurant/da-san-yuan
Da-Wan,1,2019,25.043018,121.55019,Taipei,Taipei,110,Barbecue,$$$,https://guide.michelin.com/tw/en/taipei-region/taipei/restaurant/da-wan
Daniel,2,2019,40.7666,-73.96745,New York,New York City,10065,French,$$$$,https://guide.michelin.com/us/en/new-york-state/new-york/restaurant/daniel
Daniel Berlin,2,2019,55.61246,13.99265,Skåne-Tranås,Sweden,273 92,Creative,$$$$,https://guide.michelin.com/se/en/skane/skane-tranas/restaurant/daniel-berlin
Danny's Steakhouse,1,2019,25.082657,121.552765,Taipei,Taipei,110,Steakhouse,$$,https://guide.michelin.com/tw/en/taipei-region/taipei/restaurant/danny-s-steakhouse
Das Loft,1,2019,48.21272,16.37931,Wien,Austria,1020,Modern cuisine,$$$$$,https://guide.michelin.com/at/en/vienna/wien/restaurant/das-loft
Del Posto,1,2019,40.74327,-74.0077,New York,New York City,10011,Italian,$$$$,https://guide.michelin.com/us/en/new-york-state/new-york/restaurant/del-posto
Demo,1,2019,60.164806,24.941635,Helsingfors / Helsinki,Finland,120,Modern cuisine,$$$,https://guide.michelin.com/fi/en/uusimaa/helsingfors-helsinki/restaurant/demo
Dialogue,1,2019,34.01679,-118.49748,Los Angeles,California,90401,Contemporary,$$$$,https://guide.michelin.com/us/en/california/us-los-angeles/restaurant/dialogue
Dining in Space,1,2019,37.57761,126.98845,Seoul,South Korea,N/A,French contemporary,$$$,https://guide.michelin.com/kr/en/seoul-capital-area/kr-seoul/restaurant/dining-in-space
Dining Room at The Goring,1,2019,51.49763,-0.14556,Victoria,United Kingdom,SW1W 0JW,Traditional British,N/A,https://guide.michelin.com/gb/en/greater-london/victoria/restaurant/dining-room-at-the-goring
Dinner by Heston Blumenthal,2,2019,51.50208,-0.16011,Hyde Park,United Kingdom,SW1X 7LA,Traditional British,N/A,https://guide.michelin.com/gb/en/greater-london/hyde-park/restaurant/dinner-by-heston-blumenthal
Domestic,1,2019,56.15893,10.212132,Aarhus,Denmark,8000,Modern cuisine,$$$,https://guide.michelin.com/dk/en/central-denmark/aarhus/restaurant/domestic
Dosa,1,2019,37.52445,127.04441,Seoul,South Korea,N/A,Innovative,$$$,https://guide.michelin.com/kr/en/seoul-capital-area/kr-seoul/restaurant/dosa511871
Draga di Lovrana,1,2019,45.275867,14.251401,Lovran,Croatia,51415,Modern cuisine,$$$$$,https://guide.michelin.com/hr/en/primorje-gorski-kotar/lovran/restaurant/draga-di-lovrana
Driftwood,1,2019,50.1889,-4.97088,Portscatho,United Kingdom,TR2 5EW,Modern cuisine,N/A,https://guide.michelin.com/gb/en/cornwall/portscatho/restaurant/driftwood
Duddell's,1,2019,22.28008,114.157364,Hong Kong,Hong Kong,N/A,Cantonese,$$$,https://guide.michelin.com/hk/en/hong-kong-region/hong-kong/restaurant/duddell-s
Dusek's (Board & Beer),1,2019,41.857853,-87.65757,Chicago,Chicago,60608,Gastropub,$$,https://guide.michelin.com/us/en/illinois/chicago/restaurant/dusek-s-board-beer
Écriture,2,2019,22.28315,114.1554,Hong Kong,Hong Kong,N/A,French contemporary,$$$,https://guide.michelin.com/hk/en/hong-kong-region/hong-kong/restaurant/ecriture
Edvard,1,2019,48.216503,16.36852,Wien,Austria,1010,Modern cuisine,$$$$,https://guide.michelin.com/at/en/vienna/wien/restaurant/edvard
Eipic,1,2019,54.595898,-5.9322424,Belfast,United Kingdom,BT1 6PF,Modern cuisine,N/A,https://guide.michelin.com/gb/en/belfast/belfast/restaurant/eipic
Ekstedt,1,2019,59.33674,18.07521,Stockholm,Sweden,11446,Meats and grills,$$$,https://guide.michelin.com/se/en/stockholm-region/stockholm/restaurant/ekstedt
EL Ideas,1,2019,41.863,-87.68686,Chicago,Chicago,60618,Contemporary,$$$$,https://guide.michelin.com/us/en/illinois/chicago/restaurant/el-ideas
Elements,1,2019,13.742978,100.54798,Bangkok,Thailand,N/A,French contemporary,$$$$,https://guide.michelin.com/th/en/bangkok-region/bangkok/restaurant/elements
Elephant,1,2019,50.45853,-3.52438,Torquay,United Kingdom,TQ1 2BH,Modern British,N/A,https://guide.michelin.com/gb/en/torbay/torquay/restaurant/elephant
Eleven Madison Park,3,2019,40.7417,-73.98712,New York,New York City,10010,Contemporary,$$$$,https://guide.michelin.com/us/en/new-york-state/new-york/restaurant/eleven-madison-park
Elizabeth,1,2019,41.969555,-87.688736,Chicago,Chicago,60625,Contemporary,$$$$,https://guide.michelin.com/us/en/illinois/chicago/restaurant/elizabeth
Elske,1,2019,41.884426,-87.66071,Chicago,Chicago,60607,Contemporary,$$$$,https://guide.michelin.com/us/en/illinois/chicago/restaurant/elske
Elystan Street,1,2019,51.49124,-0.16724,Chelsea,United Kingdom,SW3 3NT,Modern British,N/A,https://guide.michelin.com/gb/en/greater-london/chelsea/restaurant/elystan-street
Entente,1,2019,41.93721,-87.6652,Chicago,Chicago,60657,Contemporary,$$$,https://guide.michelin.com/us/en/illinois/chicago/restaurant/entente
Épure,1,2019,22.29583,114.169304,,Hong Kong,N/A,French,$$$,https://guide.michelin.com/hk/en/hong-kong-region/hong-kong/restaurant/epure
Era Ora,1,2019,55.673004,12.591292,København,Denmark,1414 K,Italian,$$,https://guide.michelin.com/dk/en/capital-region/kobenhavn/restaurant/era-ora
Esszimmer,1,2019,47.80685,13.03409,Salzburg,Austria,5020,Creative,$$$$$,https://guide.michelin.com/at/en/salzburg-region/salzburg/restaurant/esszimmer
Everest,1,2019,41.87597,-87.63212,Chicago,Chicago,60605,French,$$$$,https://guide.michelin.com/us/en/illinois/chicago/restaurant/everest
Evvai,1,2019,-23.567078,-46.679146,São Paulo - 05415,Sao Paulo,0,modern,$$$$$,https://guide.michelin.com/br/en/sao-paulo-region/sao-paulo/restaurant/evvai
Exquisine,1,2019,37.521046,127.049736,Seoul,South Korea,N/A,Innovative,$$$,https://guide.michelin.com/kr/en/seoul-capital-area/kr-seoul/restaurant/exquisine
FAGN,1,2019,63.43392,10.39628,Trondheim,Norway,7010,Modern cuisine,$$$$,https://guide.michelin.com/no/en/trondelag/trondheim/restaurant/fagn
Farmhouse Inn & Restaurant,1,2019,38.49039,-122.8835,San Francisco,California,95436,Californian,$$$$,https://guide.michelin.com/us/en/california/san-francisco/restaurant/farmhouse-inn-restaurant
Faro,1,2019,40.707584,-73.923035,New York,New York City,11237,American,$$,https://guide.michelin.com/us/en/new-york-state/new-york/restaurant/faro
Fat Duck,3,2019,51.50828,-0.70232,Bray,United Kingdom,SL6 2AQ,Creative,N/A,https://guide.michelin.com/gb/en/buckinghamshire/bray/restaurant/fat-duck
Fäviken Magasinet,2,2019,63.43626,13.29337,Järpen,Sweden,837 94,Creative,$$$$,https://guide.michelin.com/se/en/jamtland/jarpen/restaurant/faviken-magasinet
Feng Wei Ju,2,2019,22.18996,113.54794,Macau,Macau,N/A,Hunanese and Sichuan,$,https://guide.michelin.com/mo/en/macau-region/macau/restaurant/feng-wei-ju
Field,1,2019,50.0919,14.42193,Praha,Czech Republic,110 00,Modern cuisine,$$$$$,https://guide.michelin.com/cz/en/prague/praha/restaurant/field
Fiola,1,2019,38.89416,-77.02032,"Washington, D.C.",Washington DC,20004,Italian,$$$$,https://guide.michelin.com/us/en/washington/washington-dc/restaurant/fiola
Fischer's at Baslow Hall,1,2019,53.25055,-1.6269798,Baslow,United Kingdom,DE45 1RR,Modern cuisine,N/A,https://guide.michelin.com/gb/en/derbyshire/baslow/restaurant/fischer-s-at-baslow-hall
Five Fields,1,2019,51.49168,-0.16124,Chelsea,United Kingdom,SW3 2SP,Modern cuisine,N/A,https://guide.michelin.com/gb/en/greater-london/chelsea/restaurant/five-fields
Fordwich Arms,1,2019,51.295284,1.1261871,Fordwich,United Kingdom,CT2 0DB,Modern cuisine,N/A,https://guide.michelin.com/gb/en/kent/fordwich/restaurant/fordwich-arms
Forest Side,1,2019,54.46396,-3.0157998,Grasmere,United Kingdom,LA22 9RN,Modern British,N/A,https://guide.michelin.com/gb/en/cumbria/grasmere/restaurant/forest-side
formel B,1,2019,55.67031,12.53798,København,Denmark,1800 C,Modern cuisine,$$,https://guide.michelin.com/dk/en/capital-region/kobenhavn/restaurant/formel-b
Forum,2,2019,22.281616,114.1824,Hong Kong,Hong Kong,N/A,Cantonese,$$,https://guide.michelin.com/hk/en/hong-kong-region/hong-kong/restaurant/forum
Fraiche,1,2019,53.38183,-3.04307,Birkenhead,United Kingdom,CH43 5SG,Creative,N/A,https://guide.michelin.com/gb/en/merseyside/birkenhead/restaurant/fraiche
Frantzén,3,2019,59.33418,18.05812,Stockholm,Sweden,111 22,Modern cuisine,$$$$,https://guide.michelin.com/se/en/stockholm-region/stockholm/restaurant/frantzen
Frederikshøj,1,2019,56.12497,10.208638,Aarhus,Denmark,8000,Creative,$$$$,https://guide.michelin.com/dk/en/central-denmark/aarhus/restaurant/frederikshoj
Frederiksminde,1,2019,55.12417,12.04623,Præstø,Denmark,4720,Creative,$$$,https://guide.michelin.com/dk/en/zealand/praesto/restaurant/frederiksminde
Fu Ho (Tsim Sha Tsui),1,2019,22.3022,114.17194,Hong Kong,Hong Kong,N/A,Cantonese,$$,https://guide.michelin.com/hk/en/hong-kong-region/hong-kong/restaurant/fu-ho-tsim-sha-tsui
Gaa,1,2019,13.737806,100.54275,Bangkok,Thailand,N/A,Innovative,$$$$,https://guide.michelin.com/th/en/bangkok-region/bangkok/restaurant/gaa
Gabriel Kreuther,2,2019,40.75397,-73.982025,New York,New York City,10036,Contemporary,$$$$,https://guide.michelin.com/us/en/new-york-state/new-york/restaurant/gabriel-kreuther
Gaggan,2,2019,13.737679,100.542145,Bangkok,Thailand,N/A,Innovative,$$$$$,https://guide.michelin.com/th/en/bangkok-region/bangkok/restaurant/gaggan
Galt,1,2019,59.91661,10.71369,Oslo,Norway,263,Modern cuisine,$$$,https://guide.michelin.com/no/en/oslo-region/oslo/restaurant/galt
Galvin at Windows,1,2019,51.50539,-0.15039,Mayfair,United Kingdom,W1K 1BE,Modern cuisine,N/A,https://guide.michelin.com/gb/en/greater-london/mayfair/restaurant/galvin-at-windows
Galvin La Chapelle,1,2019,51.52032,-0.0781,Spitalfields,United Kingdom,E1 6DY,French,N/A,https://guide.michelin.com/gb/en/greater-london/spitalfields/restaurant/galvin-la-chapelle
Gaon,3,2019,37.52265,127.03595,Seoul,South Korea,N/A,Korean,$$$$$,https://guide.michelin.com/kr/en/seoul-capital-area/kr-seoul/restaurant/gaon
Garibaldi,1,2018,1.296564,103.855,Singapore,Singapore,N/A,Italian,$,https://guide.michelin.com/sg/en/singapore-region/singapore/restaurant/garibaldi
Gary Danko,1,2019,37.80599,-122.42066,San Francisco,California,94109,Contemporary,$$$$,https://guide.michelin.com/us/en/california/san-francisco/restaurant/gary-danko
Gastrologik,2,2019,59.33365,18.0807,Stockholm,Sweden,114 51,Creative,$$$$,https://guide.michelin.com/se/en/stockholm-region/stockholm/restaurant/gastrologik
Gastromé,1,2019,56.15788,10.20937,Aarhus,Denmark,8000,Modern cuisine,$$$,https://guide.michelin.com/dk/en/central-denmark/aarhus/restaurant/gastrome
Geranium,3,2019,55.70393,12.57197,København,Denmark,2100 Ø,Creative,$$$$,https://guide.michelin.com/dk/en/capital-region/kobenhavn/restaurant/geranium
Gidleigh Park,1,2019,50.67658,-3.87354,Chagford,United Kingdom,TQ13 8HH,Modern cuisine,N/A,https://guide.michelin.com/gb/en/devon/chagford/restaurant/gidleigh-park
Ginza Sushi ichi,1,2019,13.744069,100.54092,Bangkok,Thailand,N/A,Sushi,$$$$,https://guide.michelin.com/th/en/bangkok-region/bangkok/restaurant/ginza-sushi-ichi
Golden Flower,2,2019,22.18753,113.54806,Macau,Macau,N/A,Chinese,$$,https://guide.michelin.com/mo/en/macau-region/macau/restaurant/golden-flower
Golden Formosa,1,2019,25.118216,121.53623,Taipei,Taipei,110,Taiwanese,$$,https://guide.michelin.com/tw/en/taipei-region/taipei/restaurant/golden-formosa
Goosefoot,1,2019,41.96856,-87.69596,Chicago,Chicago,60625,Contemporary,$$$$,https://guide.michelin.com/us/en/illinois/chicago/restaurant/goosefoot
Gordon Ramsay,3,2019,51.48546,-0.1620201,Chelsea,United Kingdom,SW3 4HP,French,N/A,https://guide.michelin.com/gb/en/greater-london/chelsea/restaurant/gordon-ramsay
Gotgan,1,2019,37.52212,126.92022,Seoul,South Korea,N/A,Korean,$$$$,https://guide.michelin.com/kr/en/seoul-capital-area/kr-seoul/restaurant/gotgan
Gotham Bar and Grill,1,2019,40.73417,-73.99379,New York,New York City,10003,American,$$$$,https://guide.michelin.com/us/en/new-york-state/new-york/restaurant/gotham-bar-and-grill
Gramercy Tavern,1,2019,40.73849,-73.98868,New York,New York City,10003,Contemporary,$$$$,https://guide.michelin.com/us/en/new-york-state/new-york/restaurant/gramercy-tavern
Gravetye Manor,1,2019,51.08932,-0.05691,Gravetye,United Kingdom,RH19 4LJ,Modern British,N/A,https://guide.michelin.com/gb/en/west-sussex/gravetye/restaurant/gravetye-manor
Greenhouse,1,2019,53.340042,-6.258506,City Centre,Ireland,D2,Modern cuisine,N/A,https://guide.michelin.com/ie/en/dublin/city-centre/restaurant/greenhouse
Greenhouse,2,2019,51.50769,-0.14926,Mayfair,United Kingdom,W1J 5NY,Creative,N/A,https://guide.michelin.com/gb/en/greater-london/mayfair/restaurant/greenhouse69393
Grön,1,2019,60.16446,24.93308,Helsingfors / Helsinki,Finland,180,Finnish,$$$,https://guide.michelin.com/fi/en/uusimaa/helsingfors-helsinki/restaurant/gron
Guo Fu Lou,1,2019,22.278313,114.16034,Hong Kong,Hong Kong,N/A,Cantonese,$$$,https://guide.michelin.com/hk/en/hong-kong-region/hong-kong/restaurant/guo-fu-lou567828
Gymkhana,1,2019,51.50854,-0.14154,Mayfair,United Kingdom,W1S 4JH,Indian,N/A,https://guide.michelin.com/gb/en/greater-london/mayfair/restaurant/gymkhana
Hakkasan Hanway Place,1,2019,51.5171,-0.13144,Bloomsbury,United Kingdom,W1T 1HD,Chinese,N/A,https://guide.michelin.com/gb/en/greater-london/bloomsbury/restaurant/hakkasan-hanway-place
Hakkasan Mayfair,1,2019,51.51037,-0.14475,Mayfair,United Kingdom,W1J 6QB,Chinese,N/A,https://guide.michelin.com/gb/en/greater-london/mayfair/restaurant/hakkasan-mayfair
Hambleton Hall,1,2019,52.65737,-0.66812,Upper Hambleton,United Kingdom,LE15 8TH,Classic cuisine,N/A,https://guide.michelin.com/gb/en/rutland/upper-hambleton/restaurant/hambleton-hall
Hana re,1,2019,33.67759,-117.886566,Costa Mesa,California,92626,Japanese,$$$$,https://guide.michelin.com/us/en/california/us-costa-mesa/restaurant/hana-re
Hand and Flowers,2,2019,51.57031,-0.78113,Marlow,United Kingdom,SL7 2BP,Modern British,N/A,https://guide.michelin.com/gb/en/buckinghamshire/marlow/restaurant/hand-and-flowers
Hansikgonggan,1,2019,37.577705,126.98852,Seoul,South Korea,N/A,Korean,$$$,https://guide.michelin.com/kr/en/seoul-capital-area/kr-seoul/restaurant/hansikgonggan
Harbor House,1,2019,39.135876,-123.719444,San Francisco,California,N/A,Californian,$$$$,https://guide.michelin.com/us/en/california/san-francisco/restaurant/harbor-house
Harwood Arms,1,2019,51.48291,-0.19651,Fulham,United Kingdom,SW6 1QP,Modern British,N/A,https://guide.michelin.com/gb/en/greater-london/fulham/restaurant/harwood-arms
Hashiri,1,2019,37.783062,-122.40754,San Francisco,California,94103,Japanese,$$$$,https://guide.michelin.com/us/en/california/san-francisco/restaurant/hashiri
Hayato,1,2019,34.03311,-118.24265,Los Angeles,California,90001,Japanese,$$$$,https://guide.michelin.com/us/en/california/us-los-angeles/restaurant/hayato
Hélène Darroze at The Connaught,2,2019,51.5101,-0.1495701,Mayfair,United Kingdom,W1K 2AL,Modern cuisine,N/A,https://guide.michelin.com/gb/en/greater-london/mayfair/restaurant/helene-darroze-at-the-connaught
Henne Kirkeby Kro,2,2019,55.72682,8.242021,Henne,Denmark,6854,Classic cuisine,$$$,https://guide.michelin.com/dk/en/southern-denmark/henne/restaurant/henne-kirkeby-kro
Heron & Grey,1,2019,53.30143,-6.177574,Blackrock,Ireland,N/A,Modern cuisine,N/A,https://guide.michelin.com/ie/en/dun-laoghaire-rathdown/blackrock/restaurant/heron-grey
Hide,1,2019,51.506077,-0.144289,Mayfair,United Kingdom,W1J 7NB,Modern British,N/A,https://guide.michelin.com/gb/en/greater-london/mayfair/restaurant/hide
Hill Street Tai Hwa Pork Noodle,1,2018,1.3052,103.8624,Singapore,Singapore,N/A,Street Food,$,https://guide.michelin.com/sg/en/singapore-region/singapore/restaurant/hill-street-tai-hwa-pork-noodle
Hinds Head,1,2019,51.51265,-0.69641,Bray,United Kingdom,SL6 2AB,Traditional British,N/A,https://guide.michelin.com/gb/en/buckinghamshire/bray/restaurant/hinds-head
Hirohisa,1,2019,40.72452,-74.003006,New York,New York City,10012,Japanese,$$$,https://guide.michelin.com/us/en/new-york-state/new-york/restaurant/hirohisa
Ho Hung Kee,1,2019,22.280058,114.18364,Hong Kong,Hong Kong,N/A,Noodles and congee,$,https://guide.michelin.com/hk/en/hong-kong-region/hong-kong/restaurant/ho-hung-kee
House,1,2019,51.94777,-7.7135396,Aird Mhór/Ardmore,Ireland,N/A,Modern cuisine,N/A,https://guide.michelin.com/ie/en/waterford/aird-mhor-ardmore/restaurant/house
House of Tides,1,2019,54.96758,-1.61127,Newcastle upon Tyne,United Kingdom,NE1 3RF,Modern cuisine,N/A,https://guide.michelin.com/gb/en/tyne-and-wear/newcastle-upon-tyne/restaurant/house-of-tides
HRiSHi,1,2019,54.35013,-2.91172,Bowness-on-Windermere,United Kingdom,LA23 3NE,Modern cuisine,N/A,https://guide.michelin.com/gb/en/cumbria/bowness-on-windermere/restaurant/hrishi
Huto,1,2019,-23.60882,-46.6598,São Paulo - 04080,Sao Paulo,4,Japanese,$$$$$,https://guide.michelin.com/br/en/sao-paulo-region/sao-paulo/restaurant/huto
Hytra,1,2019,37.95818,23.71895,Athína,Greece,11745,Modern cuisine,$$$$$,https://guide.michelin.com/gr/en/attica/athina/restaurant/hytra
Ichigo Ichie,1,2019,51.898167,-8.479933,Corcaigh/Cork,Ireland,N/A,Japanese,N/A,https://guide.michelin.com/ie/en/cork/corcaigh-cork/restaurant/ichigo-ichie
Ichimura at Uchū,2,2019,40.721832,-73.99012,New York,New York City,10002,Japanese,$$$$,https://guide.michelin.com/us/en/new-york-state/new-york/restaurant/ichimura-at-uchu
Iggy's,1,2018,1.305986,103.8294,Singapore,Singapore,N/A,European contemporary,$$$,https://guide.michelin.com/sg/en/singapore-region/singapore/restaurant/iggy-s
Ikarus,2,2019,47.79536,13.00695,Salzburg,Austria,5020,Creative,$$$$$,https://guide.michelin.com/at/en/salzburg-region/salzburg/restaurant/ikarus
Ikoyi,1,2019,51.509212,-0.1334389,Saint James's,United Kingdom,SW1Y 4AH,Creative,N/A,https://guide.michelin.com/gb/en/greater-london/saint-james-s/restaurant/ikoyi
IM Teppanyaki & Wine,1,2019,22.280807,114.19211,Hong Kong,Hong Kong,N/A,Teppanyaki,$$,https://guide.michelin.com/hk/en/hong-kong-region/hong-kong/restaurant/im-teppanyaki-wine
Imperial Treasure Fine Chinese Cuisine,1,2019,22.296177,114.170006,Hong Kong,Hong Kong,N/A,Cantonese,$$,https://guide.michelin.com/hk/en/hong-kong-region/hong-kong/restaurant/imperial-treasure-fine-chinese-cuisine
Imperial Treasure Fine Teochew Cuisine (Orchard),1,2018,1.3032448,103.8349,Singapore,Singapore,N/A,Chinese,$,https://guide.michelin.com/sg/en/singapore-region/singapore/restaurant/imperial-treasure-fine-teochew-cuisine-orchard
Impromptu by Paul Lee,1,2019,25.05429,121.524254,Taipei,Taipei,110,Innovative,$$$,https://guide.michelin.com/tw/en/taipei-region/taipei/restaurant/impromptu-by-paul-lee
In Situ,1,2019,37.785633,-122.40113,San Francisco,California,94103,International,$$$$,https://guide.michelin.com/us/en/california/san-francisco/restaurant/in-situ
J'AIME by Jean-Michel Lorain,1,2019,13.718885,100.546326,Bangkok,Thailand,N/A,French contemporary,$$$,https://guide.michelin.com/th/en/bangkok-region/bangkok/restaurant/j-aime-by-jean-michel-lorain
Jaan,1,2018,1.293184,103.8529,Singapore,Singapore,N/A,French contemporary,$$$,https://guide.michelin.com/sg/en/singapore-region/singapore/restaurant/jaan
Jade Dragon,3,2019,22.149137,113.56715,Macau,Macau,N/A,Cantonese,$$,https://guide.michelin.com/mo/en/macau-region/macau/restaurant/jade-dragon
James Sommerin,1,2019,51.434387,-3.167951,Penarth,United Kingdom,CF64 3AU,Modern cuisine,N/A,https://guide.michelin.com/gb/en/the-vale-of-glamorgan/penarth/restaurant/james-sommerin
Jardin de Jade (Wan Chai),1,2019,22.28025,114.17716,Hong Kong,Hong Kong,N/A,Shanghainese,$$,https://guide.michelin.com/hk/en/hong-kong-region/hong-kong/restaurant/jardin-de-jade-wan-chai
Jay Fai,1,2019,13.752614,100.50466,Bangkok,Thailand,N/A,Street Food,$$,https://guide.michelin.com/th/en/bangkok-region/bangkok/restaurant/jay-fai
Jean-Georges,2,2019,40.76907,-73.98155,New York,New York City,10023,Contemporary,$$$$,https://guide.michelin.com/us/en/new-york-state/new-york/restaurant/jean-georges
Jeju Noodle Bar,1,2019,40.732952,-74.00744,New York,New York City,10014,Korean,$$,https://guide.michelin.com/us/en/new-york-state/new-york/restaurant/jeju-noodle-bar
Jewel Bako,1,2019,40.72713,-73.98928,New York,New York City,10003,Japanese,$$$,https://guide.michelin.com/us/en/new-york-state/new-york/restaurant/jewel-bako
Jiang-Nan Chun,1,2018,1.304937,103.8288,Singapore,Singapore,N/A,Cantonese,$$$,https://guide.michelin.com/sg/en/singapore-region/singapore/restaurant/jiang-nan-chun
Jin Jin,1,2019,37.55777,126.91324,Seoul,South Korea,N/A,Chinese,$,https://guide.michelin.com/kr/en/seoul-capital-area/kr-seoul/restaurant/jin-jin
John's House,1,2019,52.73295,-1.145851,Mountsorrel,United Kingdom,LE12 7AR,Modern cuisine,N/A,https://guide.michelin.com/gb/en/leicestershire/mountsorrel/restaurant/john-s-house
Joo Ok,1,2019,37.52252,127.04396,Seoul,South Korea,N/A,Korean contemporary,$$$,https://guide.michelin.com/kr/en/seoul-capital-area/kr-seoul/restaurant/joo-ok
Jordnær,1,2019,55.748226,12.541014,København,Denmark,2820,Danish,$$$,https://guide.michelin.com/dk/en/capital-region/kobenhavn/restaurant/jordnaer
jū-ni,1,2019,37.77672,-122.43886,San Francisco,California,94117,Japanese,$$$$,https://guide.michelin.com/us/en/california/san-francisco/restaurant/ju-ni
Jun Sakamoto,1,2019,-23.56318,-46.67737,São Paulo - 05413,Sao Paulo,0,Japanese,$$$$$,https://guide.michelin.com/br/en/sao-paulo-region/sao-paulo/restaurant/jun-sakamoto
Jungsik,2,2019,40.718685,-74.00911,New York,New York City,10013,Korean,$$$$,https://guide.michelin.com/us/en/new-york-state/new-york/restaurant/jungsik
Jungsik,2,2019,37.525585,127.04107,Seoul,South Korea,N/A,Korean contemporary,$$$,https://guide.michelin.com/kr/en/seoul-capital-area/kr-seoul/restaurant/jungsik511965
Junoon,1,2019,40.74325,-73.99077,New York,New York City,10010,Indian,$$$$,https://guide.michelin.com/us/en/new-york-state/new-york/restaurant/junoon
Kadeau Bornholm,1,2019,55.00457,14.969216,Pedersker,Denmark,3720,Creative,$$$$,https://guide.michelin.com/dk/en/capital-region/pedersker/restaurant/kadeau-bornholm
Kadeau Copenhagen,2,2019,55.67219,12.58848,København,Denmark,1408 K,Modern cuisine,$$$$,https://guide.michelin.com/dk/en/capital-region/kobenhavn/restaurant/kadeau-copenhagen
Kai,1,2019,51.50871,-0.15162,Mayfair,United Kingdom,W1K 2QU,Chinese,N/A,https://guide.michelin.com/gb/en/greater-london/mayfair/restaurant/kai123638
Kaiseki Den by Saotome,1,2019,22.285713,114.147865,Hong Kong,Hong Kong,N/A,Japanese,$$$$$,https://guide.michelin.com/hk/en/hong-kong-region/hong-kong/restaurant/kaiseki-den-by-saotome
Kajitsu,1,2019,40.72776,-73.98428,New York,New York City,10016,Japanese,$$$,https://guide.michelin.com/us/en/new-york-state/new-york/restaurant/kajitsu
Kali,1,2019,34.083443,-118.32455,Los Angeles,California,90028,Californian,$$$,https://guide.michelin.com/us/en/california/us-los-angeles/restaurant/kali
Kam's Roast Goose,1,2019,22.277693,114.175385,Hong Kong,Hong Kong,N/A,Cantonese Roast Meats,$,https://guide.michelin.com/hk/en/hong-kong-region/hong-kong/restaurant/kam-s-roast-goose
Kan Suke,1,2019,-23.5684,-46.64936,São Paulo - 01401,Sao Paulo,0,Japanese,$$$$$,https://guide.michelin.com/br/en/sao-paulo-region/sao-paulo/restaurant/kan-suke
Kanoyama,1,2019,40.73071,-73.98655,New York,New York City,10003,Japanese,$$$,https://guide.michelin.com/us/en/new-york-state/new-york/restaurant/kanoyama
Kashiwaya,2,2019,22.280643,114.15674,Hong Kong,Hong Kong,N/A,Japanese,$$$$,https://guide.michelin.com/hk/en/hong-kong-region/hong-kong/restaurant/kashiwaya
Kato,1,2019,34.041683,-118.460915,Los Angeles,California,90025,Asian,$$$,https://guide.michelin.com/us/en/california/us-los-angeles/restaurant/kato
Keiko à Nob Hill,1,2019,37.793106,-122.41445,San Francisco,California,94109,Fusion,$$$$,https://guide.michelin.com/us/en/california/san-francisco/restaurant/keiko-a-nob-hill
Ken An Ho,1,2019,25.034622,121.55281,Taipei,Taipei,110,Japanese,$$$$,https://guide.michelin.com/tw/en/taipei-region/taipei/restaurant/ken-an-ho
Kenzo,1,2019,38.29924,-122.28928,San Francisco,California,94559,Japanese,$$$$,https://guide.michelin.com/us/en/california/san-francisco/restaurant/kenzo
Kiin Kiin,1,2019,55.69188,12.55754,København,Denmark,2200 N,Thai,$$,https://guide.michelin.com/dk/en/capital-region/kobenhavn/restaurant/kiin-kiin
Kilian Stuba,1,2019,47.34858,10.17114,Kleinwalsertal,Austria,87568,Creative,$$$$$,https://guide.michelin.com/at/en/vorarlberg/kleinwalsertal/restaurant/kilian-stuba
Kin Khao,1,2019,37.785267,-122.40951,San Francisco,California,94102,Thai,$$,https://guide.michelin.com/us/en/california/san-francisco/restaurant/kin-khao
King,1,2019,22.190178,113.54028,Macau,Macau,N/A,Cantonese,$,https://guide.michelin.com/mo/en/macau-region/macau/restaurant/king380226
Kinjo,1,2019,37.79699,-122.422005,San Francisco,California,94109,Japanese,$$$$,https://guide.michelin.com/us/en/california/san-francisco/restaurant/kinjo
Kinoshita,1,2019,-23.59159,-46.67146,São Paulo - 04509,Sao Paulo,1,Japanese,$$$$$,https://guide.michelin.com/br/en/sao-paulo-region/sao-paulo/restaurant/kinoshita
Kinship,1,2019,38.903282,-77.0218,"Washington, D.C.",Washington DC,20001,Contemporary,$$$,https://guide.michelin.com/us/en/washington/washington-dc/restaurant/kinship
Kitchen Table at Bubbledogs,2,2019,51.52041,-0.13647,Bloomsbury,United Kingdom,W1T 4QG,Modern cuisine,N/A,https://guide.michelin.com/gb/en/greater-london/bloomsbury/restaurant/kitchen-table-at-bubbledogs
Kitchen W8,1,2019,51.49918,-0.19692,Kensington,United Kingdom,W8 6AH,Modern cuisine,N/A,https://guide.michelin.com/gb/en/greater-london/kensington/restaurant/kitchen-w8
Kitchin,1,2019,55.976967,-3.172842,Leith,United Kingdom,EH6 6LX,Modern cuisine,N/A,https://guide.michelin.com/gb/en/city-of-edinburgh/leith/restaurant/kitchin
Kitcho,1,2019,25.04429,121.55076,Taipei,Taipei,110,Sushi,$$$$,https://guide.michelin.com/tw/en/taipei-region/taipei/restaurant/kitcho
Ko,2,2019,40.72909,-73.98448,New York,New York City,10003,Contemporary,$$$$,https://guide.michelin.com/us/en/new-york-state/new-york/restaurant/ko
Kojima,2,2019,37.52559,127.04193,Seoul,South Korea,N/A,Sushi,$$$$$,https://guide.michelin.com/kr/en/seoul-capital-area/kr-seoul/restaurant/kojima
Koka,1,2019,57.698406,11.965365,Göteborg,Sweden,411 25,Modern cuisine,$$$,https://guide.michelin.com/se/en/vastra-gotaland/goteborg/restaurant/koka
Kokkeriet,1,2019,55.68768,12.58492,København,Denmark,1306 K,Modern cuisine,$$$,https://guide.michelin.com/dk/en/capital-region/kobenhavn/restaurant/kokkeriet
KOKS,2,2019,62.13667,-7.022025,Leynar,Denmark,335,Creative,$$$$,https://guide.michelin.com/dk/en/faroe-islands/leynar/restaurant/koks558780
Komi,1,2019,38.910107,-77.03836,"Washington, D.C.",Washington DC,20036,Mediterranean,$$$$,https://guide.michelin.com/us/en/washington/washington-dc/restaurant/komi
Kong Hans Kælder,1,2019,55.6787,12.584003,København,Denmark,1070 K,Classic French,$$$$,https://guide.michelin.com/dk/en/capital-region/kobenhavn/restaurant/kong-hans-kaelder
Konstantin Filippou,2,2019,48.21056,16.37996,Wien,Austria,1010,Modern cuisine,$$$$$,https://guide.michelin.com/at/en/vienna/wien/restaurant/konstantin-filippou
Kontrast,1,2019,59.92355,10.75106,Oslo,Norway,178,Scandinavian,$$$,https://guide.michelin.com/no/en/oslo-region/oslo/restaurant/kontrast
Kosaka,1,2019,40.738316,-74.00137,New York,New York City,10011,Japanese,$$$$,https://guide.michelin.com/us/en/new-york-state/new-york/restaurant/kosaka
Kosushi,1,2019,-23.58522,-46.6809,São Paulo - 04538,Sao Paulo,110,Japanese,$$$,https://guide.michelin.com/br/en/sao-paulo-region/sao-paulo/restaurant/kosushi
Kwonsooksoo,2,2019,37.526752,127.03571,Seoul,South Korea,N/A,Korean,$$$,https://guide.michelin.com/kr/en/seoul-capital-area/kr-seoul/restaurant/kwonsooksoo
Kyo Ya,1,2019,40.7266,-73.98526,New York,New York City,10009,Japanese,$$$,https://guide.michelin.com/us/en/new-york-state/new-york/restaurant/kyo-ya
L'Amitié,1,2019,37.522675,127.032646,Seoul,South Korea,N/A,French,$$$,https://guide.michelin.com/kr/en/seoul-capital-area/kr-seoul/restaurant/l-amitie
L'Appart,1,2019,40.711903,-74.01544,New York,New York City,10281,French,$$$$,https://guide.michelin.com/us/en/new-york-state/new-york/restaurant/l-appart
L'Atelier de Joël Robuchon,1,2019,25.039188,121.56771,Taipei,Taipei,110,French contemporary,$$$,https://guide.michelin.com/tw/en/taipei-region/taipei/restaurant/l-atelier-de-joel-robuchon550759
L'Atelier de Joël Robuchon,2,2019,40.742905,-74.00769,New York,New York City,N/A,French,$$$$,https://guide.michelin.com/us/en/new-york-state/new-york/restaurant/l-atelier-de-joel-robuchon562505
L'Atelier de Joël Robuchon,3,2019,22.281199,114.15816,Hong Kong,Hong Kong,N/A,French contemporary,$$$$,https://guide.michelin.com/hk/en/hong-kong-region/hong-kong/restaurant/l-atelier-de-joel-robuchon
L'Ecrivain,1,2019,53.33627,-6.24834,City Centre,Ireland,D2,Modern cuisine,N/A,https://guide.michelin.com/ie/en/dublin/city-centre/restaurant/l-ecrivain
L'Enclume,2,2019,54.201885,-2.953807,Cartmel,United Kingdom,LA11 6PZ,Creative,N/A,https://guide.michelin.com/gb/en/cumbria/cartmel/restaurant/l-enclume
L'Ortolan,1,2019,51.40833,-0.9542898,Shinfield,United Kingdom,RG2 9BY,French,N/A,https://guide.michelin.com/gb/en/wokingham/shinfield/restaurant/l-ortolan
La Dame de Pic,1,2019,51.510372,-0.0788981,City of London,United Kingdom,EC3N 4AJ,Modern French,N/A,https://guide.michelin.com/gb/en/greater-london/city-of-london/restaurant/la-dame-de-pic
La Degustation Bohême Bourgeoise,1,2019,50.09115,14.42511,Praha,Czech Republic,110 00,Modern cuisine,$$$$$,https://guide.michelin.com/cz/en/prague/praha/restaurant/la-degustation-boheme-bourgeoise
La Toque,1,2019,38.30351,-122.28349,San Francisco,California,94573,Contemporary,$$$$,https://guide.michelin.com/us/en/california/san-francisco/restaurant/la-toque
La Trompette,1,2019,51.49222,-0.25619,Chiswick,United Kingdom,W4 2EU,Modern British,N/A,https://guide.michelin.com/gb/en/greater-london/chiswick/restaurant/la-trompette
La Yeon,3,2019,37.555813,127.00517,Seoul,South Korea,N/A,Korean,$$$$,https://guide.michelin.com/kr/en/seoul-capital-area/kr-seoul/restaurant/la-yeon
Labyrinth,1,2018,1.2899688,103.8562,Singapore,Singapore,N/A,Innovative,$$,https://guide.michelin.com/sg/en/singapore-region/singapore/restaurant/labyrinth
Lady Helen,1,2019,52.526096,-7.188277,Baile Mhic Andáin/Thomastown,Ireland,N/A,Modern cuisine,N/A,https://guide.michelin.com/ie/en/kilkenny/baile-mhic-andain-thomastown/restaurant/lady-helen
Lai Heen,1,2019,22.148754,113.551926,Macau,Macau,N/A,Cantonese,$$,https://guide.michelin.com/mo/en/macau-region/macau/restaurant/lai-heen
Lasai,1,2019,-22.95401,-43.19557,Rio de Janeiro - 22271,Rio de Janeiro,20,modern,$$$$$,https://guide.michelin.com/br/en/rio-de-janeiro-region/rio-de-janeiro/restaurant/lasai
Lazy Bear,2,2019,37.760204,-122.41969,San Francisco,California,94110,Contemporary,$$$$,https://guide.michelin.com/us/en/california/san-francisco/restaurant/lazy-bear
Le Bernardin,3,2019,40.76177,-73.98223,New York,New York City,10019,Seafood,$$$$,https://guide.michelin.com/us/en/new-york-state/new-york/restaurant/le-bernardin
Le Champignon Sauvage,1,2019,51.89146,-2.07912,Cheltenham,United Kingdom,GL50 2AQ,Modern cuisine,N/A,https://guide.michelin.com/gb/en/gloucestershire/cheltenham/restaurant/le-champignon-sauvage
Le Ciel by Toni Mörwald,1,2019,48.20209,16.37156,Wien,Austria,1010,Classic cuisine,$$$$$,https://guide.michelin.com/at/en/vienna/wien/restaurant/le-ciel-by-toni-morwald
Le Comptoir,1,2019,34.06354,-118.30057,Los Angeles,California,90020,Californian,$$$$,https://guide.michelin.com/us/en/california/us-los-angeles/restaurant/le-comptoir
Le Coucou,1,2019,40.719162,-74.00001,New York,New York City,10013,French,$$$,https://guide.michelin.com/us/en/new-york-state/new-york/restaurant/le-coucou
Le Du,1,2019,13.725005,100.52939,Bangkok,Thailand,N/A,Thai,$$$$,https://guide.michelin.com/th/en/bangkok-region/bangkok/restaurant/le-du
Le Gavroche,2,2019,51.51127,-0.15517,Mayfair,United Kingdom,W1K 7QR,French,N/A,https://guide.michelin.com/gb/en/greater-london/mayfair/restaurant/le-gavroche
Le Grill de Joël Robuchon,1,2019,40.742897,-74.0077,New York,New York City,N/A,French,$$$$,https://guide.michelin.com/us/en/new-york-state/new-york/restaurant/le-grill-de-joel-robuchon
Le Normandie,2,2019,13.723197,100.513855,Bangkok,Thailand,N/A,French contemporary,$$$$,https://guide.michelin.com/th/en/bangkok-region/bangkok/restaurant/le-normandie
Le Palais,3,2019,25.049496,121.51674,Taipei,Taipei,110,Cantonese,$$,https://guide.michelin.com/tw/en/taipei-region/taipei/restaurant/le-palais
Ledbury,2,2019,51.51674,-0.20007,North Kensington,United Kingdom,W11 2AQ,Modern cuisine,N/A,https://guide.michelin.com/gb/en/greater-london/north-kensington/restaurant/ledbury
Lee Jong Kuk 104,1,2019,37.592903,126.997284,Seoul,South Korea,N/A,Korean,$$$$,https://guide.michelin.com/kr/en/seoul-capital-area/kr-seoul/restaurant/lee-jong-kuk-104
Lei Garden,1,2018,1.295228,103.8521,Singapore,Singapore,N/A,Cantonese,$,https://guide.michelin.com/sg/en/singapore-region/singapore/restaurant/lei-garden501509
Lei Garden (Kwun Tong),1,2019,22.312672,114.22482,Hong Kong,Hong Kong,N/A,Cantonese,$,https://guide.michelin.com/hk/en/hong-kong-region/hong-kong/restaurant/lei-garden-kwun-tong
Lei Garden (Mong Kok),1,2019,22.320219,114.17133,Hong Kong,Hong Kong,N/A,Cantonese,$,https://guide.michelin.com/hk/en/hong-kong-region/hong-kong/restaurant/lei-garden-mong-kok
Leroy,1,2019,51.524086,-0.0815337,Shoreditch,United Kingdom,EC2A 4NU,Modern British,N/A,https://guide.michelin.com/gb/en/greater-london/shoreditch/restaurant/leroy
Les Amis,2,2018,1.3066648,103.8314,Singapore,Singapore,N/A,French,$$$,https://guide.michelin.com/sg/en/singapore-region/singapore/restaurant/les-amis
Liao Fan Hong Kong Soya Sauce Chicken Rice & Noodle,1,2018,1.28248,103.8439,Singapore,Singapore,N/A,Street Food,$,https://guide.michelin.com/sg/en/singapore-region/singapore/restaurant/liao-fan-hong-kong-soya-sauce-chicken-rice-noodle
Loaf On,1,2019,22.379858,114.27188,Hong Kong,Hong Kong,N/A,Cantonese,$$,https://guide.michelin.com/hk/en/hong-kong-region/hong-kong/restaurant/loaf-on
Loam,1,2019,53.27384,-9.044447,Gaillimh/Galway,Ireland,N/A,Creative,N/A,https://guide.michelin.com/ie/en/galway/gaillimh-galway/restaurant/loam
Locanda Locatelli,1,2019,51.51514,-0.15675,Marylebone,United Kingdom,W1H 7JZ,Italian,N/A,https://guide.michelin.com/gb/en/greater-london/marylebone/restaurant/locanda-locatelli
Loch Bay,1,2019,57.51487,-6.57114,Waternish,United Kingdom,IV55 8GA,Modern cuisine,N/A,https://guide.michelin.com/gb/en/highland/waternish/restaurant/loch-bay
logy,1,2019,25.03561,121.55323,Taipei,Taipei,110,Asian contemporary,$$$$,https://guide.michelin.com/tw/en/taipei-region/taipei/restaurant/logy
Longtail,1,2019,25.023922,121.54841,Taipei,Taipei,110,Innovative,$$,https://guide.michelin.com/tw/en/taipei-region/taipei/restaurant/longtail
Lord Stanley,1,2019,37.79592,-122.42208,San Francisco,California,94109,Californian,$$$,https://guide.michelin.com/us/en/california/san-francisco/restaurant/lord-stanley
Luce,1,2019,37.78194,-122.40498,San Francisco,California,94103,Contemporary,$$$,https://guide.michelin.com/us/en/california/san-francisco/restaurant/luce
Lung King Heen,3,2019,22.28665,114.15674,Hong Kong,Hong Kong,N/A,Cantonese,$$$$,https://guide.michelin.com/hk/en/hong-kong-region/hong-kong/restaurant/lung-king-heen
Lyle's,1,2019,51.52378,-0.07704,Shoreditch,United Kingdom,E1 6JJ,Modern British,N/A,https://guide.michelin.com/gb/en/greater-london/shoreditch/restaurant/lyle-s
Lympstone Manor,1,2019,50.64069,-3.4186063,Lympstone,United Kingdom,EX8 3NZ,Modern cuisine,N/A,https://guide.michelin.com/gb/en/devon/lympstone/restaurant/lympstone-manor
Ma Cuisine,1,2018,1.27826,103.842,Singapore,Singapore,N/A,French,$,https://guide.michelin.com/sg/en/singapore-region/singapore/restaurant/ma-cuisine
Maaemo,3,2019,59.910477,10.760408,Oslo,Norway,191,Modern cuisine,$$$$,https://guide.michelin.com/no/en/oslo-region/oslo/restaurant/maaemo
Madcap,1,2019,37.974712,-122.56168,San Francisco,California,94960,Contemporary,$$$$,https://guide.michelin.com/us/en/california/san-francisco/restaurant/madcap
Madera,1,2019,37.42014,-122.21151,San Francisco,California,94025,Contemporary,$$$,https://guide.michelin.com/us/en/california/san-francisco/restaurant/madera
Madrona Manor,1,2019,38.60428,-122.88647,San Francisco,California,95448,Contemporary,$$$$,https://guide.michelin.com/us/en/california/san-francisco/restaurant/madrona-manor
Man Wah,1,2019,22.282213,114.15951,Hong Kong,Hong Kong,N/A,Cantonese,$$$$,https://guide.michelin.com/hk/en/hong-kong-region/hong-kong/restaurant/man-wah
Mandarin Grill + Bar,1,2019,22.281048,114.1574,Hong Kong,Hong Kong,N/A,European contemporary,$$$$,https://guide.michelin.com/hk/en/hong-kong-region/hong-kong/restaurant/mandarin-grill-bar
Maní,1,2019,-23.56621,-46.67974,São Paulo - 05415,Sao Paulo,0,creative,$$$$$,https://guide.michelin.com/br/en/sao-paulo-region/sao-paulo/restaurant/mani
Manresa,3,2019,37.22761,-121.98071,South San Francisco,California,95030,Contemporary,$$$$,https://guide.michelin.com/us/en/california/south-san-francisco/restaurant/manresa
Marchal,1,2019,55.68034,12.58508,København,Denmark,1050 K,Modern cuisine,$$,https://guide.michelin.com/dk/en/capital-region/kobenhavn/restaurant/marchal
Marcus,1,2019,51.50171,-0.15614,Belgravia,United Kingdom,SW1X 7RL,Modern cuisine,N/A,https://guide.michelin.com/gb/en/greater-london/belgravia/restaurant/marcus
Marea,2,2019,40.76749,-73.98114,New York,New York City,10019,Seafood,$$$$,https://guide.michelin.com/us/en/new-york-state/new-york/restaurant/marea
Martin Wishart,1,2019,55.97552,-3.17019,Leith,United Kingdom,EH6 6RA,Modern cuisine,N/A,https://guide.michelin.com/gb/en/city-of-edinburgh/leith/restaurant/martin-wishart
Masa,3,2019,40.76855,-73.98335,New York,New York City,10019,Japanese,$$$$,https://guide.michelin.com/us/en/new-york-state/new-york/restaurant/masa
Masons Arms,1,2019,50.99547,-3.67163,Knowstone,United Kingdom,EX36 4RY,Classic French,N/A,https://guide.michelin.com/gb/en/devon/knowstone/restaurant/masons-arms
Masseria,1,2019,38.909504,-76.99908,"Washington, D.C.",Washington DC,20002,Italian,$$$,https://guide.michelin.com/us/en/washington/washington-dc/restaurant/masseria
Mathias Dahlgren-Matbaren,1,2019,59.32935,18.07543,Stockholm,Sweden,103 27,Modern cuisine,$$,https://guide.michelin.com/se/en/stockholm-region/stockholm/restaurant/mathias-dahlgren-matbaren
Matt Worswick at The Latymer,1,2019,51.35764,-0.7086128,Bagshot,United Kingdom,GU19 5EU,Modern cuisine,N/A,https://guide.michelin.com/gb/en/surrey/bagshot/restaurant/matt-worswick-at-the-latymer
Maude,1,2019,34.064346,-118.39904,Los Angeles,California,90212,Contemporary,$$$$,https://guide.michelin.com/us/en/california/us-los-angeles/restaurant/maude
Maum,1,2019,37.72669,-122.414215,South San Francisco,California,94101,Korean,$$$$,https://guide.michelin.com/us/en/california/south-san-francisco/restaurant/maum
Me‚Mu,1,2019,55.70901,9.53302,Vejle,Denmark,7100,Modern cuisine,$$$,https://guide.michelin.com/dk/en/vejle/restaurant/me%E2%80%9Amu
Meadowsweet,1,2019,40.710354,-73.96317,New York,New York City,11212,Mediterranean,$$$,https://guide.michelin.com/us/en/new-york-state/new-york/restaurant/meadowsweet
Mee,1,2019,-22.96764,-43.17925,Rio de Janeiro - 22021,Rio de Janeiro,1,Asian influences,$$$$$,https://guide.michelin.com/br/en/rio-de-janeiro-region/rio-de-janeiro/restaurant/mee
Meta,1,2018,1.279372,103.8415,Singapore,Singapore,N/A,Innovative,$$,https://guide.michelin.com/sg/en/singapore-region/singapore/restaurant/meta
Methavalai Sorndaeng,1,2019,13.756321,100.502045,Bangkok,Thailand,N/A,Thai,$$,https://guide.michelin.com/th/en/bangkok-region/bangkok/restaurant/methavalai-sorndaeng
Métier,1,2019,38.903503,-77.0218,"Washington, D.C.",Washington DC,20001,Contemporary,$$$$,https://guide.michelin.com/us/en/washington/washington-dc/restaurant/metier
Mews,1,2019,51.48285,-9.37234,Baltimore,Ireland,N/A,Modern cuisine,N/A,https://guide.michelin.com/ie/en/cork/ie-baltimore/restaurant/mews
Mezzaluna,2,2019,13.722148,100.51691,Bangkok,Thailand,N/A,Innovative,$$$$$,https://guide.michelin.com/th/en/bangkok-region/bangkok/restaurant/mezzaluna
Michael Mina,1,2019,37.79349,-122.399574,San Francisco,California,94102,Contemporary,$$$$,https://guide.michelin.com/us/en/california/san-francisco/restaurant/michael-mina
Midsummer House,2,2019,52.21243,0.12779,Cambridge,United Kingdom,CB4 1HA,Modern cuisine,N/A,https://guide.michelin.com/gb/en/cambridgeshire/cambridge/restaurant/midsummer-house
Ming Court,1,2019,22.318314,114.16933,Hong Kong,Hong Kong,N/A,Cantonese,$$$,https://guide.michelin.com/hk/en/hong-kong-region/hong-kong/restaurant/ming-court
Ming Fu,1,2019,25.06171,121.52399,Taipei,Taipei,110,Taiwanese,$$$,https://guide.michelin.com/tw/en/taipei-region/taipei/restaurant/ming-fu
Mingles,2,2019,37.52219,127.0392,Seoul,South Korea,N/A,Korean contemporary,$$$,https://guide.michelin.com/kr/en/seoul-capital-area/kr-seoul/restaurant/mingles
minibar,2,2019,38.896294,-77.02386,"Washington, D.C.",Washington DC,20004,Contemporary,$$$$,https://guide.michelin.com/us/en/washington/washington-dc/restaurant/minibar
Mister Jiu's,1,2019,37.79371,-122.406654,San Francisco,California,94108,Chinese,$$$,https://guide.michelin.com/us/en/california/san-francisco/restaurant/mister-jius
Mizumi (Macau),2,2019,22.188755,113.54488,Macau,Macau,N/A,Japanese,$$,https://guide.michelin.com/mo/en/macau-region/macau/restaurant/mizumi-macau
Monte,1,2019,45.08279,13.631168,Rovinj,Croatia,52210,Creative,$$$$$,https://guide.michelin.com/hr/en/istria/rovinj/restaurant/monte
Moor Hall,2,2019,53.54162,-2.8895495,Aughton,United Kingdom,L39 6RT,Modern British,N/A,https://guide.michelin.com/gb/en/lancashire/aughton/restaurant/moor-hall
Mori Sushi,1,2019,34.033398,-118.44229,Los Angeles,California,90064,Japanese,$$$$,https://guide.michelin.com/us/en/california/us-los-angeles/restaurant/mori-sushi
Morston Hall,1,2019,52.95473,0.98729,Morston,United Kingdom,NR25 7AA,Modern British,N/A,https://guide.michelin.com/gb/en/norfolk/morston/restaurant/morston-hall
Mosu,1,2019,37.536415,126.99934,Seoul,South Korea,N/A,Innovative,$$$$$,https://guide.michelin.com/kr/en/seoul-capital-area/kr-seoul/restaurant/mosu
Mountain and Sea House,1,2019,25.038046,121.531395,Taipei,Taipei,110,Taiwanese,$$,https://guide.michelin.com/tw/en/taipei-region/taipei/restaurant/mountain-and-sea-house
Mourad,1,2019,37.78695,-122.39987,San Francisco,California,94105,Moroccan,$$$,https://guide.michelin.com/us/en/california/san-francisco/restaurant/mourad
Mraz & Sohn,2,2019,48.23129,16.37637,Wien,Austria,1200,Creative,$$$$$,https://guide.michelin.com/at/en/vienna/wien/restaurant/mraz-sohn
MUME,1,2019,25.036266,121.54809,Taipei,Taipei,110,European contemporary,$$$,https://guide.michelin.com/tw/en/taipei-region/taipei/restaurant/mume
Muoki,1,2019,37.518963,127.04217,Seoul,South Korea,N/A,Innovative,$$$,https://guide.michelin.com/kr/en/seoul-capital-area/kr-seoul/restaurant/muoki
Murano,1,2019,51.50707,-0.14722,Mayfair,United Kingdom,W1J 5PP,Italian,N/A,https://guide.michelin.com/gb/en/greater-london/mayfair/restaurant/murano
n/naka,2,2019,34.02526,-118.41206,Los Angeles,California,90034,Contemporary,$$$$,https://guide.michelin.com/us/en/california/us-los-angeles/restaurant/n-naka
Nahm,1,2019,13.724357,100.53926,Bangkok,Thailand,N/A,Thai,$$$,https://guide.michelin.com/th/en/bangkok-region/bangkok/restaurant/nahm
New Punjab Club,1,2019,22.28005,114.15525,Hong Kong,Hong Kong,N/A,Indian,$$,https://guide.michelin.com/hk/en/hong-kong-region/hong-kong/restaurant/new-punjab-club
Nico,1,2019,37.795803,-122.40333,San Francisco,California,94101,Contemporary,$$$,https://guide.michelin.com/us/en/california/san-francisco/restaurant/nico
Nix,1,2019,40.733166,-73.993515,New York,New York City,10003,Vegetarian,$$$,https://guide.michelin.com/us/en/new-york-state/new-york/restaurant/nix
Noda,1,2019,40.74497,-73.988075,New York,New York City,N/A,Japanese,$$$$,https://guide.michelin.com/us/en/new-york-state/new-york/restaurant/noda
Noel,1,2019,45.811054,15.988205,Zagreb,Croatia,10000,Modern cuisine,$$$$$,https://guide.michelin.com/hr/en/zagreb-region/zagreb/restaurant/noel
noma,2,2019,55.68332,12.61006,København,Denmark,1432 K,Creative,$$$$,https://guide.michelin.com/dk/en/capital-region/kobenhavn/restaurant/noma
NoMad,1,2019,40.74497,-73.98883,New York,New York City,10001,Contemporary,$$$$,https://guide.michelin.com/us/en/new-york-state/new-york/restaurant/nomad
North Pond,1,2019,41.9296,-87.63762,Chicago,Chicago,60614,Contemporary,$$$,https://guide.michelin.com/us/en/illinois/chicago/restaurant/north-pond
Northcote,1,2019,53.80933,-2.4476,Langho,United Kingdom,BB6 8BE,Modern British,N/A,https://guide.michelin.com/gb/en/lancashire/langho/restaurant/northcote
Nouri,1,2018,1.28086,103.84713,Singapore,Singapore,N/A,Innovative,$,https://guide.michelin.com/sg/en/singapore-region/singapore/restaurant/nouri
Nozawa Bar,1,2019,34.0683,-118.39849,Los Angeles,California,90210,Japanese,$$$$,https://guide.michelin.com/us/en/california/us-los-angeles/restaurant/nozawa-bar
Number One,1,2019,55.95298,-3.18966,Edinburgh,United Kingdom,EH2 2EQ,Modern cuisine,N/A,https://guide.michelin.com/gb/en/city-of-edinburgh/edinburgh/restaurant/number-one
Nut Tree,1,2019,51.83618,-1.1499,Murcott,United Kingdom,OX5 2RE,Traditional British,N/A,https://guide.michelin.com/gb/en/oxfordshire/murcott/restaurant/nut-tree
Oaxen Krog,2,2019,59.322342,18.101831,Stockholm,Sweden,11521,Creative,$$$$,https://guide.michelin.com/se/en/stockholm-region/stockholm/restaurant/oaxen-krog
Octavia,1,2019,37.787857,-122.42709,San Francisco,California,94109,Californian,$$$,https://guide.michelin.com/us/en/california/san-francisco/restaurant/octavia
Octavium,1,2019,22.282587,114.1572,Hong Kong,Hong Kong,N/A,Italian,$$$,https://guide.michelin.com/hk/en/hong-kong-region/hong-kong/restaurant/octavium
Odette,2,2018,1.2896459,103.8516,Singapore,Singapore,N/A,French contemporary,$$$$,https://guide.michelin.com/sg/en/singapore-region/singapore/restaurant/odette
Okuda,1,2019,40.743793,-74.00633,New York,New York City,N/A,Japanese,$$$$,https://guide.michelin.com/us/en/new-york-state/new-york/restaurant/okuda
Olive Tree,1,2019,51.38707,-2.3627,Bath,United Kingdom,BA1 2QF,Modern cuisine,N/A,https://guide.michelin.com/gb/en/bath-and-north-east-somerset/bath/restaurant/olive-tree
Olo,1,2019,60.16616,24.947704,Helsingfors / Helsinki,Finland,170,Modern cuisine,$$$,https://guide.michelin.com/fi/en/uusimaa/helsingfors-helsinki/restaurant/olo
Olympe,1,2019,-22.96109,-43.20658,Rio de Janeiro - 22470,Rio de Janeiro,230,French,$$$$$,https://guide.michelin.com/br/en/rio-de-janeiro-region/rio-de-janeiro/restaurant/olympe
Omakase,1,2019,37.77077,-122.40298,San Francisco,California,94103,Japanese,$$$$,https://guide.michelin.com/us/en/california/san-francisco/restaurant/omakase
Onyx,2,2019,47.49712,19.05067,Budapest,Hungary,1051,Modern cuisine,$$$$$,https://guide.michelin.com/hu/en/central-hungary/budapest/restaurant/onyx
Operakällaren,1,2019,59.329876,18.071363,Stockholm,Sweden,111 86,Classic cuisine,$$$$,https://guide.michelin.com/se/en/stockholm-region/stockholm/restaurant/operakallaren
Ora,1,2019,60.157578,24.942947,Helsingfors / Helsinki,Finland,150,Modern cuisine,$$$,https://guide.michelin.com/fi/en/uusimaa/helsingfors-helsinki/restaurant/ora
Oriole,2,2019,41.886196,-87.64513,Chicago,Chicago,60661,Contemporary,$$$$,https://guide.michelin.com/us/en/illinois/chicago/restaurant/oriole
Oro,2,2019,-22.98601,-43.22471,Rio de Janeiro - 22441,Rio de Janeiro,15,creative,$$$$$,https://guide.michelin.com/br/en/rio-de-janeiro-region/rio-de-janeiro/restaurant/oro
Orsa & Winston,1,2019,33.92145,-118.275406,Los Angeles,California,90013,Fusion,$$$$,https://guide.michelin.com/us/en/california/us-los-angeles/restaurant/orsa-winston
Osteria Mozza,1,2019,34.08342,-118.338974,Los Angeles,California,90028,Italian,$$$,https://guide.michelin.com/us/en/california/us-los-angeles/restaurant/osteria-mozza
Oteque,1,2019,-22.95747,-43.194424,Rio de Janeiro - 22271,Rio de Janeiro,20,modern,$$$$$,https://guide.michelin.com/br/en/rio-de-janeiro-region/rio-de-janeiro/restaurant/oteque
Outlaw's Fish Kitchen,1,2019,50.59206,-4.832,Port Isaac,United Kingdom,PL29 3RH,Seafood,N/A,https://guide.michelin.com/gb/en/cornwall/port-isaac/restaurant/outlaw-s-fish-kitchen
OX,1,2019,54.59891,-5.92198,Belfast,United Kingdom,BT1 3LA,Modern British,N/A,https://guide.michelin.com/gb/en/belfast/belfast/restaurant/ox399109
Oxford Kitchen,1,2019,51.776733,-1.264794,Oxford,United Kingdom,OX2 7HQ,Modern British,N/A,https://guide.michelin.com/gb/en/oxfordshire/oxford/restaurant/oxford-kitchen
Oxomoco,1,2019,40.730057,-73.95538,New York,New York City,11222,Mexican,$$$,https://guide.michelin.com/us/en/new-york-state/new-york/restaurant/oxomoco
Paco Tapas,1,2019,51.44647,-2.59358,Bristol,United Kingdom,BS1 6FU,Spanish,N/A,https://guide.michelin.com/gb/en/south-gloucestershire/bristol/restaurant/paco-tapas
Palace,1,2019,60.16556,24.95256,Helsingfors / Helsinki,Finland,130,Modern cuisine,$$$,https://guide.michelin.com/fi/en/uusimaa/helsingfors-helsinki/restaurant/palace
Pang's Kitchen,1,2019,22.26921,114.18452,Hong Kong,Hong Kong,N/A,Cantonese,$,https://guide.michelin.com/hk/en/hong-kong-region/hong-kong/restaurant/pang-s-kitchen
Parachute,1,2019,41.94483,-87.70638,Chicago,Chicago,60618,Fusion,$$,https://guide.michelin.com/us/en/illinois/chicago/restaurant/parachute
Paste,1,2019,13.744594,100.540565,Bangkok,Thailand,N/A,Thai,$$$,https://guide.michelin.com/th/en/bangkok-region/bangkok/restaurant/paste
Patrick Guilbaud,2,2019,53.33893,-6.25283,City Centre,Ireland,D2,Modern French,N/A,https://guide.michelin.com/ie/en/dublin/city-centre/restaurant/patrick-guilbaud
Paul Ainsworth at No.6,1,2019,50.541534,-4.9398518,Padstow,United Kingdom,PL28 8AP,Modern cuisine,N/A,https://guide.michelin.com/gb/en/cornwall/padstow/restaurant/paul-ainsworth-at-no-6
Pearl Dragon,1,2019,22.140524,113.56256,Macau,Macau,N/A,Cantonese,$$$,https://guide.michelin.com/mo/en/macau-region/macau/restaurant/pearl-dragon
Peel's,1,2019,52.4259,-1.70536,Hampton in Arden,United Kingdom,B92 ODQ,Creative British,N/A,https://guide.michelin.com/gb/en/west-midlands/hampton-in-arden/restaurant/peel-s
Pelegrini,1,2019,43.73603,15.888903,Šibenik,Croatia,22000,Modern cuisine,$$$$$,https://guide.michelin.com/hr/en/sibenik-knin/sibenik/restaurant/pelegrini
Per Se,3,2019,40.76828,-73.98292,New York,New York City,10019,Contemporary,$$$$,https://guide.michelin.com/us/en/new-york-state/new-york/restaurant/per-se
Peter Luger,1,2019,40.70986,-73.96263,New York,New York City,11211,Steakhouse,$$$$,https://guide.michelin.com/us/en/new-york-state/new-york/restaurant/peter-luger
Pétrus,1,2019,51.49951,-0.15662,Belgravia,United Kingdom,SW1X 8EA,French,N/A,https://guide.michelin.com/gb/en/greater-london/belgravia/restaurant/petrus284688
Pfefferschiff,1,2019,47.83787,13.07917,Hallwang,Austria,5300,Classic cuisine,$$$$$,https://guide.michelin.com/at/en/salzburg-region/hallwang/restaurant/pfefferschiff
Picchi,1,2019,-23.565063,-46.666767,São Paulo - 01426,Sao Paulo,1,Italian,$$$$$,https://guide.michelin.com/br/en/sao-paulo-region/sao-paulo/restaurant/picchi
Pied à Terre,1,2019,51.519,-0.13511,Bloomsbury,United Kingdom,W1T 2NH,Creative,N/A,https://guide.michelin.com/gb/en/greater-london/bloomsbury/restaurant/pied-a-terre
Pierre,2,2019,22.282127,114.15948,Hong Kong,Hong Kong,N/A,French contemporary,$$$$,https://guide.michelin.com/hk/en/hong-kong-region/hong-kong/restaurant/pierre
Pineapple and Pearls,2,2019,38.880707,-76.99514,"Washington, D.C.",Washington DC,20003,Contemporary,$$$$,https://guide.michelin.com/us/en/washington/washington-dc/restaurant/pineapple-and-pearls
Pipe and Glass,1,2019,53.8955,-0.53301,South Dalton,United Kingdom,HU17 7PN,Modern British,N/A,https://guide.michelin.com/gb/en/east-riding-of-yorkshire/south-dalton/restaurant/pipe-and-glass
Plume,1,2019,38.906,-77.03671,"Washington, D.C.",Washington DC,20036,European,$$$$,https://guide.michelin.com/us/en/washington/washington-dc/restaurant/plume
Plumed Horse,1,2019,37.25648,-122.03537,South San Francisco,California,95070,Contemporary,$$$$,https://guide.michelin.com/us/en/california/south-san-francisco/restaurant/plumed-horse
PM & Vänner,1,2019,56.87892,14.80387,Växjö,Sweden,352 31,Creative,$$$,https://guide.michelin.com/se/en/kronoberg/vaxjo/restaurant/pm-vanner
Pollen Street Social,1,2019,51.5133,-0.14234,Mayfair,United Kingdom,W1S 1NQ,Creative,N/A,https://guide.michelin.com/gb/en/greater-london/mayfair/restaurant/pollen-street-social
Pony & Trap,1,2019,51.34938,-2.5925994,Chew Magna,United Kingdom,BS40 8TQ,Modern British,N/A,https://guide.michelin.com/gb/en/bath-and-north-east-somerset/chew-magna/restaurant/pony-trap
Poom,1,2019,37.54903,126.98341,Seoul,South Korea,N/A,Korean,$$$,https://guide.michelin.com/kr/en/seoul-capital-area/kr-seoul/restaurant/poom
Portland,1,2019,51.519726,-0.142555,Regent's Park,United Kingdom,W1W 6QQ,Modern cuisine,N/A,https://guide.michelin.com/gb/en/greater-london/regent-s-park/restaurant/portland
Pramerl & the Wolf,1,2019,48.20945,16.37174,Wien,Austria,1090,Creative,$$$$$,https://guide.michelin.com/at/en/vienna/wien/restaurant/pramerl-the-wolf
Protégé,1,2019,37.427853,-122.14362,South San Francisco,California,94301,Contemporary,$$$,https://guide.michelin.com/us/en/california/south-san-francisco/restaurant/protege
Providence,2,2019,34.083523,-118.33019,Los Angeles,California,90028,Seafood,$$$$,https://guide.michelin.com/us/en/california/us-los-angeles/restaurant/providence
PRU,1,2019,8.034298,98.2764,Phuket,Thailand,N/A,Innovative,$$$$$,https://guide.michelin.com/th/en/phuket-region/phuket/restaurant/pru
Purnell's,1,2019,52.48268,-1.9018,Birmingham,United Kingdom,B3 2DH,Modern cuisine,N/A,https://guide.michelin.com/gb/en/west-midlands/birmingham/restaurant/purnell-s
Putien (Kitchener Road),1,2018,1.30969,103.8573,Singapore,Singapore,N/A,Fujian,$,https://guide.michelin.com/sg/en/singapore-region/singapore/restaurant/putien-kitchener-road
Q Sushi,1,2019,34.046883,-118.255844,Los Angeles,California,90017,Japanese,$$$$,https://guide.michelin.com/us/en/california/us-los-angeles/restaurant/q-sushi
Qi (Wan Chai),1,2019,22.276443,114.17126,Hong Kong,Hong Kong,N/A,Sichuan,$,https://guide.michelin.com/hk/en/hong-kong-region/hong-kong/restaurant/qi-wan-chai
Quilon,1,2019,51.49863,-0.13726,Victoria,United Kingdom,SW1E 6AF,Indian,N/A,https://guide.michelin.com/gb/en/greater-london/victoria/restaurant/quilon
Quince,3,2019,37.79762,-122.40337,San Francisco,California,94133,Contemporary,$$$$,https://guide.michelin.com/us/en/california/san-francisco/restaurant/quince
R-Haan,1,2019,13.731805,100.57972,Bangkok,Thailand,N/A,Thai,$$$$,https://guide.michelin.com/th/en/bangkok-region/bangkok/restaurant/r-haan
Raby Hunt,2,2019,54.56647,-1.689258,Summerhouse,United Kingdom,DL2 3UD,Modern British,N/A,https://guide.michelin.com/gb/en/darlington/summerhouse/restaurant/raby-hunt
Rasa,1,2019,37.577522,-122.345985,San Francisco,California,94010,Indian,$$,https://guide.michelin.com/us/en/california/san-francisco/restaurant/rasa
RAW,2,2019,25.082666,121.559525,Taipei,Taipei,110,Innovative,$$$,https://guide.michelin.com/tw/en/taipei-region/taipei/restaurant/raw
RE-NAA,1,2019,58.972088,5.732877,Stavanger,Norway,4006,Creative,$$$$,https://guide.michelin.com/no/en/rogaland/stavanger/restaurant/re-naa
Rech,1,2019,22.293434,114.174034,Hong Kong,Hong Kong,N/A,Seafood,$$$$,https://guide.michelin.com/hk/en/hong-kong-region/hong-kong/restaurant/rech
Red Lion Freehouse,1,2019,51.2736,-1.8007996,East Chisenbury,United Kingdom,SN9 6AQ,Classic cuisine,N/A,https://guide.michelin.com/gb/en/wiltshire/east-chisenbury/restaurant/red-lion-freehouse
Relæ,1,2019,55.693233,12.543222,København,Denmark,2200 N,Modern cuisine,$$,https://guide.michelin.com/dk/en/capital-region/kobenhavn/restaurant/relae
Restaurant Hywel Jones by Lucknam Park,1,2019,51.45502,-2.25941,Colerne,United Kingdom,SN14 8AZ,Modern British,N/A,https://guide.michelin.com/gb/en/wiltshire/colerne/restaurant/restaurant-hywel-jones-by-lucknam-park
Restaurant Nathan Outlaw,2,2019,50.594086,-4.82854,Port Isaac,United Kingdom,PL29 3SB,Seafood,N/A,https://guide.michelin.com/gb/en/cornwall/port-isaac/restaurant/restaurant-nathan-outlaw
Restaurant Sat Bains,2,2019,52.92438,-1.1733198,Nottingham,United Kingdom,NG7 2SA,Creative,N/A,https://guide.michelin.com/gb/en/nottingham/nottingham/restaurant/restaurant-sat-bains
Restaurant Tristan,1,2019,51.062347,-0.326034,Horsham,United Kingdom,RH12 1HU,Modern British,N/A,https://guide.michelin.com/gb/en/west-sussex/horsham/restaurant/restaurant-tristan
Rhubarb,1,2018,1.279368,103.843,Singapore,Singapore,N/A,French contemporary,$,https://guide.michelin.com/sg/en/singapore-region/singapore/restaurant/rhubarb
Rich Table,1,2019,37.774914,-122.42271,San Francisco,California,94102,Contemporary,$$$,https://guide.michelin.com/us/en/california/san-francisco/restaurant/rich-table
Ritz Restaurant,1,2019,51.50728,-0.14141,Westminster,United Kingdom,W1J 9BR,Modern British,N/A,https://guide.michelin.com/gb/en/greater-london/westminster/restaurant/ritz-restaurant
River Café,1,2019,51.48395,-0.22423,Hammersmith,United Kingdom,W6 9HA,Italian,N/A,https://guide.michelin.com/gb/en/greater-london/hammersmith/restaurant/river-cafe
Robuchon au Dôme,3,2019,22.189949,113.54395,Macau,Macau,N/A,French contemporary,$$$$,https://guide.michelin.com/mo/en/macau-region/macau/restaurant/robuchon-au-dome
Rogan & Co,1,2019,54.20074,-2.95464,Cartmel,United Kingdom,LA11 6QD,Creative British,N/A,https://guide.michelin.com/gb/en/cumbria/cartmel/restaurant/rogan-co
Roganic,1,2019,51.518314,-0.1520875,Marylebone,United Kingdom,W1U 3DB,Creative British,N/A,https://guide.michelin.com/gb/en/greater-london/marylebone/restaurant/roganic
Roister,1,2019,41.886658,-87.65187,Chicago,Chicago,60607,Contemporary,$$$,https://guide.michelin.com/us/en/illinois/chicago/restaurant/roister
Rose's Luxury,1,2019,38.88064,-76.99515,"Washington, D.C.",Washington DC,20003,Contemporary,$$,https://guide.michelin.com/us/en/washington/washington-dc/restaurant/rose-s-luxury
Ruean Panya,1,2019,13.558403,100.28264,Bangkok,Thailand,N/A,Thai,$$,https://guide.michelin.com/th/en/bangkok-region/bangkok/restaurant/ruean-panya
Rustic Canyon,1,2019,34.024952,-118.49118,Los Angeles,California,90401,Californian,$$$,https://guide.michelin.com/us/en/california/us-los-angeles/restaurant/rustic-canyon
Ryo Gastronomia,1,2019,-23.58132,-46.6767,São Paulo - 04531,Sao Paulo,1,Japanese,$$$$$,https://guide.michelin.com/br/en/sao-paulo-region/sao-paulo/restaurant/ryo-gastronomia
Saawaan,1,2019,13.721809,100.53741,Bangkok,Thailand,N/A,Thai Contemporary,$$$$,https://guide.michelin.com/th/en/bangkok-region/bangkok/restaurant/saawaan
Sabi Omakase,1,2019,58.969936,5.7433133,Stavanger,Norway,4013,Sushi,$$$$,https://guide.michelin.com/no/en/rogaland/stavanger/restaurant/sabi-omakase
Sabor,1,2019,51.511368,-0.1396773,Mayfair,United Kingdom,W1B 4BR,Spanish,N/A,https://guide.michelin.com/gb/en/greater-london/mayfair/restaurant/sabor
Saint Pierre,1,2018,1.285781,103.8538,Singapore,Singapore,N/A,French contemporary,$$,https://guide.michelin.com/sg/en/singapore-region/singapore/restaurant/saint-pierre
Saison,2,2019,37.76327,-122.41543,San Francisco,California,94107,Californian,$$$$,https://guide.michelin.com/us/en/california/san-francisco/restaurant/saison
Salt,1,2019,52.18963,-1.7092043,Stratford-upon-Avon,United Kingdom,CV37 6HB,Modern British,N/A,https://guide.michelin.com/gb/en/warwickshire/stratford-upon-avon/restaurant/salt522869
Samphire,1,2019,49.18488,-2.1057,Saint Helier/Saint-Hélier,United Kingdom,JE2 4TQ,Modern cuisine,N/A,https://guide.michelin.com/gb/en/saint-helier/saint-helier-saint-helier/restaurant/samphire392987
Saneh Jaan,1,2019,13.735739,100.54605,Bangkok,Thailand,N/A,Thai,$$,https://guide.michelin.com/th/en/bangkok-region/bangkok/restaurant/saneh-jaan
Satsuki,1,2019,40.801243,-73.95187,New York,New York City,10036,Japanese,$$$$,https://guide.michelin.com/us/en/new-york-state/new-york/restaurant/satsuki
SAV,1,2019,55.53376,13.00537,Malmö,Sweden,21875,Creative,$$$,https://guide.michelin.com/se/en/skane/malmo/restaurant/sav
Savelberg,1,2019,13.738216,100.54642,Bangkok,Thailand,N/A,French contemporary,$$$,https://guide.michelin.com/th/en/bangkok-region/bangkok/restaurant/savelberg
Schwa,1,2019,41.90888,-87.66792,Chicago,Chicago,60662,Contemporary,$$$$,https://guide.michelin.com/us/en/illinois/chicago/restaurant/schwa
SENNS.Restaurant,2,2019,47.83636,13.06389,Salzburg,Austria,5020,Creative,$$$$$,https://guide.michelin.com/at/en/salzburg-region/salzburg/restaurant/senns-restaurant
Senses,1,2019,52.244583,21.005886,Warszawa,Poland,00 085,Modern cuisine,$$$$$,https://guide.michelin.com/pl/en/masovia/warszawa/restaurant/senses
Sepia,1,2019,41.88394,-87.64247,Chicago,Chicago,60661,American,$$$,https://guide.michelin.com/us/en/illinois/chicago/restaurant/sepia
Seven Park Place,1,2019,51.50623,-0.13998,Saint James's,United Kingdom,SW1A 1LS,Modern cuisine,N/A,https://guide.michelin.com/gb/en/greater-london/saint-james-s/restaurant/seven-park-place
Shang Palace,1,2019,22.297325,114.177155,Hong Kong,Hong Kong,N/A,Cantonese,$$$,https://guide.michelin.com/hk/en/hong-kong-region/hong-kong/restaurant/shang-palace
Shibumi,1,2019,34.044155,-118.256134,Los Angeles,California,90014,Japanese,$$$$,https://guide.michelin.com/us/en/california/us-los-angeles/restaurant/shibumi559644
SHIKI,1,2019,48.204067,16.37098,Wien,Austria,1010,Japanese,$$$$$,https://guide.michelin.com/at/en/vienna/wien/restaurant/shiki
Shin Sushi,1,2019,34.15784,-118.49415,Los Angeles,California,91436,Japanese,$$$,https://guide.michelin.com/us/en/california/us-los-angeles/restaurant/shin-sushi
Shinji (Bras Basah Road),1,2018,1.2959028,103.8539,Singapore,Singapore,N/A,Sushi,$$,https://guide.michelin.com/sg/en/singapore-region/singapore/restaurant/shinji-bras-basah-road
Shinji (Tanglin Road),1,2018,1.305821,103.8257,Singapore,Singapore,N/A,Sushi,$$$$,https://guide.michelin.com/sg/en/singapore-region/singapore/restaurant/shinji-tanglin-road
Shinji by Kanesaka,1,2019,22.149635,113.56397,Macau,Macau,N/A,Sushi,$$$$,https://guide.michelin.com/mo/en/macau-region/macau/restaurant/shinji-by-kanesaka
Shisen Hanten,2,2018,1.302395,103.8365,Singapore,Singapore,N/A,Chinese,$,https://guide.michelin.com/sg/en/singapore-region/singapore/restaurant/shisen-hanten
Shoukouwa,2,2018,1.2863698,103.854,Singapore,Singapore,N/A,Sushi,$$$$$,https://guide.michelin.com/sg/en/singapore-region/singapore/restaurant/shoukouwa
Shoun RyuGin,2,2019,25.08258,121.5595,Taipei,Taipei,110,Japanese contemporary,$$$$,https://guide.michelin.com/tw/en/taipei-region/taipei/restaurant/shoun-ryugin
Shunji,1,2019,34.028496,-118.45195,Los Angeles,California,90064,Japanese,$$$$,https://guide.michelin.com/us/en/california/us-los-angeles/restaurant/shunji
Silvio Nickol Gourmet Restaurant,2,2019,48.20558,16.37693,Wien,Austria,1010,Modern cuisine,$$$$$,https://guide.michelin.com/at/en/vienna/wien/restaurant/silvio-nickol-gourmet-restaurant
Simon Radley at Chester Grosvenor,1,2019,53.19064,-2.88913,Chester,United Kingdom,CH1 1LT,Modern cuisine,N/A,https://guide.michelin.com/gb/en/cheshire-west-and-chester/chester/restaurant/simon-radley-at-chester-grosvenor
Simpsons,1,2019,52.46925,-1.9238801,Birmingham,United Kingdom,B15 3DU,Modern cuisine,N/A,https://guide.michelin.com/gb/en/west-midlands/birmingham/restaurant/simpsons
SingleThread,3,2019,38.612164,-122.869705,San Francisco,California,95448,Contemporary,$$$$,https://guide.michelin.com/us/en/california/san-francisco/restaurant/singlethread
Siren by RW,1,2019,38.907776,-77.035446,"Washington, D.C.",Washington DC,20005,Seafood,$$$,https://guide.michelin.com/us/en/washington/washington-dc/restaurant/siren-by-rw
SK Mat & Människor,1,2019,57.69688,11.98338,Göteborg,Sweden,412 55,Modern cuisine,$$$,https://guide.michelin.com/se/en/vastra-gotaland/goteborg/restaurant/sk-mat-manniskor
Sketch (The Lecture Room & Library),2,2019,51.51287,-0.14136,Mayfair,United Kingdom,W1S 2XG,Modern French,N/A,https://guide.michelin.com/gb/en/greater-london/mayfair/restaurant/sketch-the-lecture-room-library
Slotskøkkenet,1,2019,55.771236,11.390805,Hørve,Denmark,4534,Creative,$$$$,https://guide.michelin.com/dk/en/zealand/horve/restaurant/slotskokkenet
Smyth,2,2019,41.885,-87.660736,Chicago,Chicago,60607,Contemporary,$$$$,https://guide.michelin.com/us/en/illinois/chicago/restaurant/smyth
Social Eating House,1,2019,51.51383,-0.13673,Soho,United Kingdom,W1F 7NR,Modern cuisine,N/A,https://guide.michelin.com/gb/en/greater-london/soho/restaurant/social-eating-house
Soigné,1,2019,37.49816,127.002,Seoul,South Korea,N/A,Innovative,$$$,https://guide.michelin.com/kr/en/seoul-capital-area/kr-seoul/restaurant/soigne
Søllerød Kro,1,2019,55.81325,12.49548,København,Denmark,2840,Modern cuisine,$$,https://guide.michelin.com/dk/en/capital-region/kobenhavn/restaurant/sollerod-kro
Somni,2,2019,34.070095,-118.37649,Los Angeles,California,90048,Contemporary,$$$$,https://guide.michelin.com/us/en/california/us-los-angeles/restaurant/somni
Sons & Daughters,1,2019,37.79037,-122.40917,San Francisco,California,94108,Contemporary,$$$$,https://guide.michelin.com/us/en/california/san-francisco/restaurant/sons-daughters
Sorn,1,2019,13.723242,100.56848,Bangkok,Thailand,N/A,Southern Thai,$$$$$,https://guide.michelin.com/th/en/bangkok-region/bangkok/restaurant/sorn
Sorrel,1,2019,37.788334,-122.44614,San Francisco,California,94101,Californian,$$$,https://guide.michelin.com/us/en/california/san-francisco/restaurant/sorrel
Sorrel,1,2019,51.228825,-0.3346741,Dorking,United Kingdom,RH4 2JU,Modern British,N/A,https://guide.michelin.com/gb/en/surrey/dorking/restaurant/sorrel545459
Sosban & The Old Butchers,1,2019,53.225925,-4.163006,Menai Bridge/Porthaethwy,United Kingdom,LL59 5EE,Modern cuisine,N/A,https://guide.michelin.com/gb/en/isle-of-anglesey/menai-bridge-porthaethwy/restaurant/sosban-the-old-butchers
Spiaggia,1,2019,41.90062,-87.62457,Chicago,Chicago,60611,Italian,$$$$,https://guide.michelin.com/us/en/illinois/chicago/restaurant/spiaggia
Spondi,2,2019,37.96525,23.742971,Athína,Greece,116 36,French,$$$$$,https://guide.michelin.com/gr/en/attica/athina/restaurant/spondi
SPQR,1,2019,37.78732,-122.43375,San Francisco,California,94115,Italian,$$$,https://guide.michelin.com/us/en/california/san-francisco/restaurant/spqr
Spring Moon,1,2019,22.294943,114.17182,Hong Kong,Hong Kong,N/A,Cantonese,$$$,https://guide.michelin.com/hk/en/hong-kong-region/hong-kong/restaurant/spring-moon
Spruce,1,2019,37.78772,-122.45264,San Francisco,California,94118,Californian,$$$,https://guide.michelin.com/us/en/california/san-francisco/restaurant/spruce
Sra Bua by Kiin Kiin,1,2019,13.754137,100.53451,Bangkok,Thailand,N/A,Thai Contemporary,$$$,https://guide.michelin.com/th/en/bangkok-region/bangkok/restaurant/sra-bua-by-kiin-kiin
St John,1,2019,51.52064,-0.10133,Clerkenwell,United Kingdom,EC1M 4AY,Traditional British,N/A,https://guide.michelin.com/gb/en/greater-london/clerkenwell/restaurant/st-john
Stand,1,2019,47.500244,19.059624,Budapest,Hungary,1061,Modern cuisine,$$$,https://guide.michelin.com/hu/en/central-hungary/budapest/restaurant/stand
Star Inn at Harome,1,2019,54.23101,-1.01023,Harome,United Kingdom,YO62 5JE,Modern British,N/A,https://guide.michelin.com/gb/en/north-yorkshire/harome/restaurant/star-inn-at-harome
State Bird Provisions,1,2019,37.783737,-122.43283,San Francisco,California,94115,American,$$,https://guide.michelin.com/us/en/california/san-francisco/restaurant/state-bird-provisions
Statholdergaarden,1,2019,59.90937,10.74305,Oslo,Norway,151,Classic cuisine,$$$$,https://guide.michelin.com/no/en/oslo-region/oslo/restaurant/statholdergaarden
Stay,1,2019,37.513004,127.10257,Seoul,South Korea,N/A,French contemporary,$$$,https://guide.michelin.com/kr/en/seoul-capital-area/kr-seoul/restaurant/stay
Steirereck im Stadtpark,2,2019,48.20229,16.3805,Wien,Austria,1030,Creative,$$$$$,https://guide.michelin.com/at/en/vienna/wien/restaurant/steirereck-im-stadtpark
Story,1,2019,51.50268,-0.07774,Bermondsey,United Kingdom,SE1 2JX,Modern cuisine,N/A,https://guide.michelin.com/gb/en/greater-london/bermondsey/restaurant/story
Stud!o at The Standard,1,2019,55.67799,12.59191,København,Denmark,1058 K,Creative,$$$,https://guide.michelin.com/dk/en/capital-region/kobenhavn/restaurant/stud-o-at-the-standard
Suan Thip,1,2019,13.926962,100.502144,Bangkok,Thailand,N/A,Thai,$,https://guide.michelin.com/th/en/bangkok-region/bangkok/restaurant/suan-thip
Substans,1,2019,56.15415,10.20372,Aarhus,Denmark,8000,Modern cuisine,$$$,https://guide.michelin.com/dk/en/central-denmark/aarhus/restaurant/substans
Sühring,2,2019,13.710947,100.545654,Bangkok,Thailand,N/A,European contemporary,$$$$,https://guide.michelin.com/th/en/bangkok-region/bangkok/restaurant/suhring
Summer Palace,1,2019,22.277136,114.1643,Hong Kong,Hong Kong,N/A,Cantonese,$$$,https://guide.michelin.com/hk/en/hong-kong-region/hong-kong/restaurant/summer-palace
Summer Palace,1,2018,1.3043848,103.825,Singapore,Singapore,N/A,Cantonese,$,https://guide.michelin.com/sg/en/singapore-region/singapore/restaurant/summer-palace501658
Summer Pavilion,1,2018,1.291284,103.8603,Singapore,Singapore,N/A,Cantonese,$$,https://guide.michelin.com/sg/en/singapore-region/singapore/restaurant/summer-pavilion
Sun Tung Lok,2,2019,22.30099,114.17221,Hong Kong,Hong Kong,N/A,Cantonese,$$,https://guide.michelin.com/hk/en/hong-kong-region/hong-kong/restaurant/sun-tung-lok
Sushi Amamoto,2,2019,25.037945,121.55487,Taipei,Taipei,110,Sushi,$$$$,https://guide.michelin.com/tw/en/taipei-region/taipei/restaurant/sushi-amamoto
Sushi Amane,1,2019,40.75133,-73.971725,New York,New York City,10017,Japanese,$$$$,https://guide.michelin.com/us/en/new-york-state/new-york/restaurant/sushi-amane
Sushi Ginza Onodera,2,2019,34.08238,-118.37654,Los Angeles,California,N/A,Japanese,$$$$,https://guide.michelin.com/us/en/california/us-los-angeles/restaurant/sushi-ginza-onodera559850
Sushi Ginza Onodera,2,2019,40.752396,-73.981575,New York,New York City,10017,Japanese,$$$$,https://guide.michelin.com/us/en/new-york-state/new-york/restaurant/sushi-ginza-onodera
Sushi Ichi,1,2018,1.305105,103.8324,Singapore,Singapore,N/A,Sushi,$$$,https://guide.michelin.com/sg/en/singapore-region/singapore/restaurant/sushi-ichi
Sushi Inoue,1,2019,40.810448,-73.943726,New York,New York City,10027,Japanese,$$$$,https://guide.michelin.com/us/en/new-york-state/new-york/restaurant/sushi-inoue
Sushi Kimura,1,2018,1.3063719,103.829475,Singapore,Singapore,N/A,Sushi,$$$$,https://guide.michelin.com/sg/en/singapore-region/singapore/restaurant/sushi-kimura
Sushi Nakazawa,1,2019,40.731716,-74.00451,New York,New York City,10014,Japanese,$$$$,https://guide.michelin.com/us/en/new-york-state/new-york/restaurant/sushi-nakazawa
Sushi Nomura,1,2019,25.03618,121.55465,Taipei,Taipei,110,Sushi,$$$,https://guide.michelin.com/tw/en/taipei-region/taipei/restaurant/sushi-nomura
Sushi Noz,1,2019,40.77384,-73.958275,New York,New York City,N/A,Japanese,$$$$,https://guide.michelin.com/us/en/new-york-state/new-york/restaurant/sushi-noz
Sushi Ryu,1,2019,25.055832,121.52724,Taipei,Taipei,110,Sushi,$$$$,https://guide.michelin.com/tw/en/taipei-region/taipei/restaurant/sushi-ryu
Sushi Saito,2,2019,22.286467,114.15677,Hong Kong,Hong Kong,N/A,Sushi,$$$$$,https://guide.michelin.com/hk/en/hong-kong-region/hong-kong/restaurant/sushi-saito
Sushi Shikon,3,2019,22.28511,114.15208,Hong Kong,Hong Kong,N/A,Sushi,$$$$$,https://guide.michelin.com/hk/en/hong-kong-region/hong-kong/restaurant/sushi-shikon
Sushi Sho,1,2019,59.341286,18.049892,Stockholm,Sweden,113 28,Japanese,$$$,https://guide.michelin.com/se/en/stockholm-region/stockholm/restaurant/sushi-sho
Sushi Taro,1,2019,38.909992,-77.03834,"Washington, D.C.",Washington DC,20036,Japanese,$$$$,https://guide.michelin.com/us/en/washington/washington-dc/restaurant/sushi-taro
Sushi Tokami,1,2019,22.296112,114.16916,Hong Kong,Hong Kong,N/A,Sushi,$$$$$,https://guide.michelin.com/hk/en/hong-kong-region/hong-kong/restaurant/sushi-tokami
Sushi Wadatsumi,1,2019,22.281038,114.15646,Hong Kong,Hong Kong,N/A,Sushi,$$$,https://guide.michelin.com/hk/en/hong-kong-region/hong-kong/restaurant/sushi-wadatsumi
Sushi Yasuda,1,2019,40.75108,-73.97364,New York,New York City,10017,Japanese,$$$$,https://guide.michelin.com/us/en/new-york-state/new-york/restaurant/sushi-yasuda
Sushi Yoshizumi,1,2019,37.565075,-122.3211,San Francisco,California,94401,Japanese,$$$$,https://guide.michelin.com/us/en/california/san-francisco/restaurant/sushi-yoshizumi
T'ang Court,3,2019,22.296572,114.1698,Hong Kong,Hong Kong,N/A,Cantonese,$$$,https://guide.michelin.com/hk/en/hong-kong-region/hong-kong/restaurant/t-ang-court
Ta Vie,2,2019,22.282766,114.15529,Hong Kong,Hong Kong,N/A,Innovative,$$$$$,https://guide.michelin.com/hk/en/hong-kong-region/hong-kong/restaurant/ta-vie
Table for Four,1,2019,37.49769,126.99442,Seoul,South Korea,N/A,European contemporary,$$$,https://guide.michelin.com/kr/en/seoul-capital-area/kr-seoul/restaurant/table-for-four
Taco María,1,2019,33.69475,-117.924965,Costa Mesa,California,92626,Mexican,$$$,https://guide.michelin.com/us/en/california/us-costa-mesa/restaurant/taco-maria
Tail Up Goat,1,2019,38.9235,-77.043274,"Washington, D.C.",Washington DC,20009,Contemporary,$$,https://guide.michelin.com/us/en/washington/washington-dc/restaurant/tail-up-goat
Tainan Tan Tsu Mien Seafood,1,2019,25.03799,121.4984,Taipei,Taipei,110,Seafood,$$,https://guide.michelin.com/tw/en/taipei-region/taipei/restaurant/tainan-tan-tsu-mien-seafood
Taïrroir,2,2019,25.082718,121.559296,Taipei,Taipei,110,Innovative,$$$,https://guide.michelin.com/tw/en/taipei-region/taipei/restaurant/tairroir
Takumi by Daisuke Mori,1,2019,22.276512,114.17718,Hong Kong,Hong Kong,N/A,Innovative,$$$$$,https://guide.michelin.com/hk/en/hong-kong-region/hong-kong/restaurant/takumi-by-daisuke-mori
Tangará Jean-Georges,1,2019,-23.634005,-46.72428,São Paulo - 05706,Sao Paulo,290,modern,$$$$$,https://guide.michelin.com/br/en/sao-paulo-region/sao-paulo/restaurant/tangara-jean-georges
Tate,1,2019,22.280996,114.15276,Hong Kong,Hong Kong,N/A,Innovative,$$$$$,https://guide.michelin.com/hk/en/hong-kong-region/hong-kong/restaurant/tate
Temporis,1,2019,41.898907,-87.66725,Chicago,Chicago,N/A,Contemporary,$$$$,https://guide.michelin.com/us/en/illinois/chicago/restaurant/temporis
Tempura Matsui,1,2019,40.74839,-73.97474,New York,New York City,10158,Japanese,$$$$,https://guide.michelin.com/us/en/new-york-state/new-york/restaurant/tempura-matsui
Tenku RyuGin,2,2019,22.30331,114.16021,Hong Kong,Hong Kong,N/A,Japanese,$$$$$,https://guide.michelin.com/hk/en/hong-kong-region/hong-kong/restaurant/tenku-ryugin
Texture,1,2019,51.51488,-0.15664,Marylebone,United Kingdom,W1H 7BY,Creative,N/A,https://guide.michelin.com/gb/en/greater-london/marylebone/restaurant/texture
The Araki,3,2019,51.511826,-0.140389,Mayfair,United Kingdom,W1S 3BF,Japanese,N/A,https://guide.michelin.com/gb/en/greater-london/mayfair/restaurant/the-araki
The Cellar,1,2019,56.222126,-2.696321,Anstruther,United Kingdom,KY10 3AA,Modern cuisine,N/A,https://guide.michelin.com/gb/en/fife/anstruther/restaurant/the-cellar
The Checkers,1,2019,52.55568,-3.13769,Montgomery/Trefaldwyn,United Kingdom,SY15 6PN,French,N/A,https://guide.michelin.com/gb/en/powys/montgomery-trefaldwyn/restaurant/the-checkers
The Clocktower,1,2019,40.7414,-73.987595,New York,New York City,10010,Contemporary,$$$,https://guide.michelin.com/us/en/new-york-state/new-york/restaurant/the-clocktower
The Clove Club,1,2019,51.52711,-0.07927,Shoreditch,United Kingdom,EC1V 9LT,Modern cuisine,N/A,https://guide.michelin.com/gb/en/greater-london/shoreditch/restaurant/the-clove-club
The Coach,1,2019,51.571712,-0.7772678,Marlow,United Kingdom,SL7 2LS,Modern British,N/A,https://guide.michelin.com/gb/en/buckinghamshire/marlow/restaurant/the-coach
The Cross at Kenilworth,1,2019,52.350315,-1.5801147,Kenilworth,United Kingdom,CV8 2EZ,Classic cuisine,N/A,https://guide.michelin.com/gb/en/warwickshire/kenilworth/restaurant/the-cross-at-kenilworth
The Dabney,1,2019,38.906292,-77.024666,"Washington, D.C.",Washington DC,20001,American,$$,https://guide.michelin.com/us/en/washington/washington-dc/restaurant/the-dabney
The Dining Room,1,2019,51.58376,-2.14954,Malmesbury,United Kingdom,SN16 0RB,Asian influences,N/A,https://guide.michelin.com/gb/en/wiltshire/malmesbury/restaurant/the-dining-room193454
The Eight,3,2019,22.190475,113.54341,Macau,Macau,N/A,Chinese,$$$,https://guide.michelin.com/mo/en/macau-region/macau/restaurant/the-eight
The Finch,1,2019,40.68704,-73.96297,New York,New York City,11238,American,$$$,https://guide.michelin.com/us/en/new-york-state/new-york/restaurant/the-finch
The French Laundry,3,2019,38.40443,-122.36474,San Francisco,California,94599,Contemporary,$$$$,https://guide.michelin.com/us/en/california/san-francisco/restaurant/the-french-laundry
The Glasshouse,1,2019,51.4771,-0.28574,Kew,United Kingdom,TW9 3PZ,Modern cuisine,N/A,https://guide.michelin.com/gb/en/greater-london/kew/restaurant/the-glasshouse
The Golden Peacock,1,2019,22.148178,113.56335,Macau,Macau,N/A,Indian,$,https://guide.michelin.com/mo/en/macau-region/macau/restaurant/the-golden-peacock
